header: 
  seq: 2084
  stamp: 
    secs: 1701559080
    nsecs: 537912285
  frame_id: ''
name: 
  - joint_1
  - joint_2
  - joint_3
  - joint_4
position: [-0.26384469866752625, -1.310019612312317, -0.36508744955062866, -0.8835729360580444]
velocity: [0.0, 0.0, 0.0, 0.0]
effort: [-139.8800048828125, 37.65999984741211, 126.43000030517578, 330.8699951171875]
---
header: 
  seq: 2085
  stamp: 
    secs: 1701559080
    nsecs: 570049460
  frame_id: ''
name: 
  - joint_1
  - joint_2
  - joint_3
  - joint_4
position: [-0.26384469866752625, -1.3084856271743774, -0.36508744955062866, -0.8835729360580444]
velocity: [0.0, 0.0, 0.0, 0.0]
effort: [-139.8800048828125, 40.35000228881836, 126.43000030517578, 330.8699951171875]
---
header: 
  seq: 2086
  stamp: 
    secs: 1701559080
    nsecs: 602044957
  frame_id: ''
name: 
  - joint_1
  - joint_2
  - joint_3
  - joint_4
position: [-0.26384469866752625, -1.310019612312317, -0.36508744955062866, -0.8835729360580444]
velocity: [0.0, 0.0, 0.0, 0.0]
effort: [-139.8800048828125, 37.65999984741211, 129.1199951171875, 330.8699951171875]
---
header: 
  seq: 2087
  stamp: 
    secs: 1701559080
    nsecs: 634020624
  frame_id: ''
name: 
  - joint_1
  - joint_2
  - joint_3
  - joint_4
position: [-0.26384469866752625, -1.310019612312317, -0.36508744955062866, -0.8835729360580444]
velocity: [0.0, 0.0, 0.0, 0.0]
effort: [-139.8800048828125, 37.65999984741211, 126.43000030517578, 330.8699951171875]
---
header: 
  seq: 2088
  stamp: 
    secs: 1701559080
    nsecs: 666039243
  frame_id: ''
name: 
  - joint_1
  - joint_2
  - joint_3
  - joint_4
position: [-0.26384469866752625, -1.310019612312317, -0.36508744955062866, -0.8835729360580444]
velocity: [0.0, 0.0, 0.0, 0.0]
effort: [-139.8800048828125, 37.65999984741211, 126.43000030517578, 330.8699951171875]
---
header: 
  seq: 2089
  stamp: 
    secs: 1701559080
    nsecs: 697965221
  frame_id: ''
name: 
  - joint_1
  - joint_2
  - joint_3
  - joint_4
position: [-0.26384469866752625, -1.310019612312317, -0.36508744955062866, -0.8835729360580444]
velocity: [0.0, 0.0, 0.0, 0.0]
effort: [-139.8800048828125, 40.35000228881836, 126.43000030517578, 330.8699951171875]
---
header: 
  seq: 2090
  stamp: 
    secs: 1701559080
    nsecs: 730033009
  frame_id: ''
name: 
  - joint_1
  - joint_2
  - joint_3
  - joint_4
position: [-0.2623107135295868, -1.310019612312317, -0.36508744955062866, -0.8835729360580444]
velocity: [0.0, 0.0, 0.0, 0.0]
effort: [-139.8800048828125, 37.65999984741211, 126.43000030517578, 330.8699951171875]
---
header: 
  seq: 2091
  stamp: 
    secs: 1701559080
    nsecs: 762039468
  frame_id: ''
name: 
  - joint_1
  - joint_2
  - joint_3
  - joint_4
position: [-0.26384469866752625, -1.310019612312317, -0.36508744955062866, -0.8835729360580444]
velocity: [0.0, 0.0, 0.0, 0.0]
effort: [-139.8800048828125, 40.35000228881836, 126.43000030517578, 330.8699951171875]
---
header: 
  seq: 2092
  stamp: 
    secs: 1701559080
    nsecs: 794074731
  frame_id: ''
name: 
  - joint_1
  - joint_2
  - joint_3
  - joint_4
position: [-0.26384469866752625, -1.310019612312317, -0.36508744955062866, -0.8835729360580444]
velocity: [0.0, 0.0, 0.0, 0.0]
effort: [-139.8800048828125, 40.35000228881836, 123.74000549316406, 330.8699951171875]
---
header: 
  seq: 2093
  stamp: 
    secs: 1701559080
    nsecs: 825985039
  frame_id: ''
name: 
  - joint_1
  - joint_2
  - joint_3
  - joint_4
position: [-0.26384469866752625, -1.310019612312317, -0.36508744955062866, -0.8835729360580444]
velocity: [0.0, 0.0, 0.0, 0.0]
effort: [-139.8800048828125, 37.65999984741211, 126.43000030517578, 330.8699951171875]
---
header: 
  seq: 2094
  stamp: 
    secs: 1701559080
    nsecs: 858008660
  frame_id: ''
name: 
  - joint_1
  - joint_2
  - joint_3
  - joint_4
position: [-0.26384469866752625, -1.310019612312317, -0.36508744955062866, -0.8835729360580444]
velocity: [0.0, 0.0, 0.0, 0.0]
effort: [-139.8800048828125, 37.65999984741211, 126.43000030517578, 330.8699951171875]
---
header: 
  seq: 2095
  stamp: 
    secs: 1701559080
    nsecs: 889940537
  frame_id: ''
name: 
  - joint_1
  - joint_2
  - joint_3
  - joint_4
position: [-0.26384469866752625, -1.310019612312317, -0.36508744955062866, -0.8835729360580444]
velocity: [0.0, 0.0, 0.0, 0.0]
effort: [-139.8800048828125, 37.65999984741211, 126.43000030517578, 330.8699951171875]
---
header: 
  seq: 2096
  stamp: 
    secs: 1701559080
    nsecs: 921981420
  frame_id: ''
name: 
  - joint_1
  - joint_2
  - joint_3
  - joint_4
position: [-0.26384469866752625, -1.310019612312317, -0.36508744955062866, -0.8835729360580444]
velocity: [0.0, 0.0, 0.0, 0.0]
effort: [-139.8800048828125, 37.65999984741211, 126.43000030517578, 330.8699951171875]
---
header: 
  seq: 2097
  stamp: 
    secs: 1701559080
    nsecs: 954011139
  frame_id: ''
name: 
  - joint_1
  - joint_2
  - joint_3
  - joint_4
position: [-0.26384469866752625, -1.310019612312317, -0.36508744955062866, -0.8835729360580444]
velocity: [0.0, 0.0, 0.0, 0.0]
effort: [-139.8800048828125, 34.970001220703125, 126.43000030517578, 330.8699951171875]
---
header: 
  seq: 2098
  stamp: 
    secs: 1701559080
    nsecs: 986021358
  frame_id: ''
name: 
  - joint_1
  - joint_2
  - joint_3
  - joint_4
position: [-0.26384469866752625, -1.310019612312317, -0.36508744955062866, -0.8835729360580444]
velocity: [0.0, 0.0, 0.0, 0.0]
effort: [-139.8800048828125, 37.65999984741211, 126.43000030517578, 330.8699951171875]
---
header: 
  seq: 2099
  stamp: 
    secs: 1701559081
    nsecs:  17957118
  frame_id: ''
name: 
  - joint_1
  - joint_2
  - joint_3
  - joint_4
position: [-0.26384469866752625, -1.310019612312317, -0.36508744955062866, -0.8835729360580444]
velocity: [0.0, 0.0, 0.0, 0.0]
effort: [-139.8800048828125, 34.970001220703125, 123.74000549316406, 330.8699951171875]
---
header: 
  seq: 2100
  stamp: 
    secs: 1701559081
    nsecs:  50005490
  frame_id: ''
name: 
  - joint_1
  - joint_2
  - joint_3
  - joint_4
position: [-0.26384469866752625, -1.310019612312317, -0.36508744955062866, -0.8835729360580444]
velocity: [0.0, 0.0, 0.0, 0.0]
effort: [-139.8800048828125, 40.35000228881836, 126.43000030517578, 330.8699951171875]
---
header: 
  seq: 2101
  stamp: 
    secs: 1701559081
    nsecs:  81884814
  frame_id: ''
name: 
  - joint_1
  - joint_2
  - joint_3
  - joint_4
position: [-0.26384469866752625, -1.310019612312317, -0.36508744955062866, -0.8835729360580444]
velocity: [0.0, 0.0, 0.0, 0.0]
effort: [-139.8800048828125, 43.040000915527344, 126.43000030517578, 330.8699951171875]
---
header: 
  seq: 2102
  stamp: 
    secs: 1701559081
    nsecs: 113916146
  frame_id: ''
name: 
  - joint_1
  - joint_2
  - joint_3
  - joint_4
position: [-0.26384469866752625, -1.310019612312317, -0.36508744955062866, -0.8835729360580444]
velocity: [0.0, 0.0, 0.0, 0.0]
effort: [-139.8800048828125, 43.040000915527344, 123.74000549316406, 330.8699951171875]
---
header: 
  seq: 2103
  stamp: 
    secs: 1701559081
    nsecs: 145903884
  frame_id: ''
name: 
  - joint_1
  - joint_2
  - joint_3
  - joint_4
position: [-0.26384469866752625, -1.310019612312317, -0.36508744955062866, -0.8835729360580444]
velocity: [0.0, 0.0, 0.0, 0.0]
effort: [-139.8800048828125, 45.72999954223633, 126.43000030517578, 330.8699951171875]
---
header: 
  seq: 2104
  stamp: 
    secs: 1701559081
    nsecs: 177959560
  frame_id: ''
name: 
  - joint_1
  - joint_2
  - joint_3
  - joint_4
position: [-0.26384469866752625, -1.310019612312317, -0.36508744955062866, -0.8835729360580444]
velocity: [0.0, 0.0, 0.0, 0.0]
effort: [-139.8800048828125, 43.040000915527344, 126.43000030517578, 330.8699951171875]
---
header: 
  seq: 2105
  stamp: 
    secs: 1701559081
    nsecs: 209941128
  frame_id: ''
name: 
  - joint_1
  - joint_2
  - joint_3
  - joint_4
position: [-0.26384469866752625, -1.310019612312317, -0.36508744955062866, -0.8835729360580444]
velocity: [0.0, 0.0, 0.0, 0.0]
effort: [-139.8800048828125, 43.040000915527344, 129.1199951171875, 330.8699951171875]
---
header: 
  seq: 2106
  stamp: 
    secs: 1701559081
    nsecs: 241963982
  frame_id: ''
name: 
  - joint_1
  - joint_2
  - joint_3
  - joint_4
position: [-0.26384469866752625, -1.310019612312317, -0.36508744955062866, -0.8835729360580444]
velocity: [0.0, 0.0, 0.0, 0.0]
effort: [-139.8800048828125, 40.35000228881836, 126.43000030517578, 330.8699951171875]
---
header: 
  seq: 2107
  stamp: 
    secs: 1701559081
    nsecs: 273853619
  frame_id: ''
name: 
  - joint_1
  - joint_2
  - joint_3
  - joint_4
position: [-0.26384469866752625, -1.310019612312317, -0.36508744955062866, -0.8835729360580444]
velocity: [0.0, 0.0, 0.0, 0.0]
effort: [-139.8800048828125, 40.35000228881836, 126.43000030517578, 328.17999267578125]
---
header: 
  seq: 2108
  stamp: 
    secs: 1701559081
    nsecs: 305878408
  frame_id: ''
name: 
  - joint_1
  - joint_2
  - joint_3
  - joint_4
position: [-0.26384469866752625, -1.310019612312317, -0.36508744955062866, -0.8835729360580444]
velocity: [0.0, 0.0, 0.0, 0.0]
effort: [-139.8800048828125, 43.040000915527344, 126.43000030517578, 330.8699951171875]
---
header: 
  seq: 2109
  stamp: 
    secs: 1701559081
    nsecs: 337990888
  frame_id: ''
name: 
  - joint_1
  - joint_2
  - joint_3
  - joint_4
position: [-0.26384469866752625, -1.310019612312317, -0.36508744955062866, -0.8835729360580444]
velocity: [0.0, 0.0, 0.0, 0.0]
effort: [-139.8800048828125, 37.65999984741211, 126.43000030517578, 330.8699951171875]
---
header: 
  seq: 2110
  stamp: 
    secs: 1701559081
    nsecs: 369955075
  frame_id: ''
name: 
  - joint_1
  - joint_2
  - joint_3
  - joint_4
position: [-0.26384469866752625, -1.310019612312317, -0.36508744955062866, -0.8835729360580444]
velocity: [0.0, 0.0, 0.0, 0.0]
effort: [-139.8800048828125, 37.65999984741211, 129.1199951171875, 330.8699951171875]
---
header: 
  seq: 2111
  stamp: 
    secs: 1701559081
    nsecs: 401959725
  frame_id: ''
name: 
  - joint_1
  - joint_2
  - joint_3
  - joint_4
position: [-0.26384469866752625, -1.310019612312317, -0.36508744955062866, -0.8835729360580444]
velocity: [0.0, 0.0, 0.0, 0.0]
effort: [-139.8800048828125, 40.35000228881836, 126.43000030517578, 328.17999267578125]
---
header: 
  seq: 2112
  stamp: 
    secs: 1701559081
    nsecs: 433897560
  frame_id: ''
name: 
  - joint_1
  - joint_2
  - joint_3
  - joint_4
position: [-0.26384469866752625, -1.310019612312317, -0.36508744955062866, -0.8835729360580444]
velocity: [0.0, 0.0, 0.0, 0.0]
effort: [-139.8800048828125, 40.35000228881836, 129.1199951171875, 330.8699951171875]
---
header: 
  seq: 2113
  stamp: 
    secs: 1701559081
    nsecs: 465871910
  frame_id: ''
name: 
  - joint_1
  - joint_2
  - joint_3
  - joint_4
position: [-0.26384469866752625, -1.310019612312317, -0.36508744955062866, -0.8835729360580444]
velocity: [0.0, 0.0, 0.0, 0.0]
effort: [-139.8800048828125, 40.35000228881836, 126.43000030517578, 328.17999267578125]
---
header: 
  seq: 2114
  stamp: 
    secs: 1701559081
    nsecs: 497906487
  frame_id: ''
name: 
  - joint_1
  - joint_2
  - joint_3
  - joint_4
position: [-0.26384469866752625, -1.310019612312317, -0.36508744955062866, -0.8835729360580444]
velocity: [0.0, 0.0, 0.0, 0.0]
effort: [-139.8800048828125, 40.35000228881836, 123.74000549316406, 330.8699951171875]
---
header: 
  seq: 2115
  stamp: 
    secs: 1701559081
    nsecs: 529928057
  frame_id: ''
name: 
  - joint_1
  - joint_2
  - joint_3
  - joint_4
position: [-0.26384469866752625, -1.310019612312317, -0.36508744955062866, -0.8835729360580444]
velocity: [0.0, 0.0, 0.0, 0.0]
effort: [-139.8800048828125, 37.65999984741211, 129.1199951171875, 330.8699951171875]
---
header: 
  seq: 2116
  stamp: 
    secs: 1701559081
    nsecs: 561974837
  frame_id: ''
name: 
  - joint_1
  - joint_2
  - joint_3
  - joint_4
position: [-0.26384469866752625, -1.310019612312317, -0.36508744955062866, -0.8835729360580444]
velocity: [0.0, 0.0, 0.0, 0.0]
effort: [-139.8800048828125, 40.35000228881836, 123.74000549316406, 330.8699951171875]
---
header: 
  seq: 2117
  stamp: 
    secs: 1701559081
    nsecs: 593971528
  frame_id: ''
name: 
  - joint_1
  - joint_2
  - joint_3
  - joint_4
position: [-0.26384469866752625, -1.310019612312317, -0.36508744955062866, -0.8835729360580444]
velocity: [0.0, 0.0, 0.0, 0.0]
effort: [-139.8800048828125, 37.65999984741211, 118.36000061035156, 330.8699951171875]
---
header: 
  seq: 2118
  stamp: 
    secs: 1701559081
    nsecs: 625972205
  frame_id: ''
name: 
  - joint_1
  - joint_2
  - joint_3
  - joint_4
position: [-0.26384469866752625, -1.310019612312317, -0.36508744955062866, -0.8835729360580444]
velocity: [0.0, 0.0, 0.0, 0.0]
effort: [-139.8800048828125, 37.65999984741211, 121.05000305175781, 330.8699951171875]
---
header: 
  seq: 2119
  stamp: 
    secs: 1701559081
    nsecs: 657923971
  frame_id: ''
name: 
  - joint_1
  - joint_2
  - joint_3
  - joint_4
position: [-0.26384469866752625, -1.310019612312317, -0.36508744955062866, -0.8835729360580444]
velocity: [0.0, 0.0, 0.0, 0.0]
effort: [-139.8800048828125, 40.35000228881836, 126.43000030517578, 330.8699951171875]
---
header: 
  seq: 2120
  stamp: 
    secs: 1701559081
    nsecs: 689895017
  frame_id: ''
name: 
  - joint_1
  - joint_2
  - joint_3
  - joint_4
position: [-0.26384469866752625, -1.310019612312317, -0.36508744955062866, -0.8835729360580444]
velocity: [0.0, 0.0, 0.0, 0.0]
effort: [-139.8800048828125, 37.65999984741211, 126.43000030517578, 330.8699951171875]
---
header: 
  seq: 2121
  stamp: 
    secs: 1701559081
    nsecs: 721898091
  frame_id: ''
name: 
  - joint_1
  - joint_2
  - joint_3
  - joint_4
position: [-0.26384469866752625, -1.310019612312317, -0.36508744955062866, -0.8835729360580444]
velocity: [0.0, 0.0, 0.0, 0.0]
effort: [-139.8800048828125, 40.35000228881836, 126.43000030517578, 330.8699951171875]
---
header: 
  seq: 2122
  stamp: 
    secs: 1701559081
    nsecs: 753910789
  frame_id: ''
name: 
  - joint_1
  - joint_2
  - joint_3
  - joint_4
position: [-0.26384469866752625, -1.310019612312317, -0.36508744955062866, -0.8835729360580444]
velocity: [0.0, 0.0, 0.0, 0.0]
effort: [-139.8800048828125, 37.65999984741211, 126.43000030517578, 330.8699951171875]
---
header: 
  seq: 2123
  stamp: 
    secs: 1701559081
    nsecs: 785908303
  frame_id: ''
name: 
  - joint_1
  - joint_2
  - joint_3
  - joint_4
position: [-0.26384469866752625, -1.310019612312317, -0.36508744955062866, -0.8835729360580444]
velocity: [0.0, 0.0, 0.0, 0.0]
effort: [-139.8800048828125, 37.65999984741211, 126.43000030517578, 330.8699951171875]
---
header: 
  seq: 2124
  stamp: 
    secs: 1701559081
    nsecs: 817948013
  frame_id: ''
name: 
  - joint_1
  - joint_2
  - joint_3
  - joint_4
position: [-0.26384469866752625, -1.310019612312317, -0.36508744955062866, -0.8835729360580444]
velocity: [0.0, 0.0, 0.0, 0.0]
effort: [-139.8800048828125, 34.970001220703125, 126.43000030517578, 330.8699951171875]
---
header: 
  seq: 2125
  stamp: 
    secs: 1701559081
    nsecs: 849897509
  frame_id: ''
name: 
  - joint_1
  - joint_2
  - joint_3
  - joint_4
position: [-0.26384469866752625, -1.310019612312317, -0.36508744955062866, -0.8835729360580444]
velocity: [0.0, 0.0, 0.0, 0.0]
effort: [-139.8800048828125, 40.35000228881836, 123.74000549316406, 330.8699951171875]
---
header: 
  seq: 2126
  stamp: 
    secs: 1701559081
    nsecs: 881859528
  frame_id: ''
name: 
  - joint_1
  - joint_2
  - joint_3
  - joint_4
position: [-0.26384469866752625, -1.310019612312317, -0.36508744955062866, -0.8835729360580444]
velocity: [0.0, 0.0, 0.0, 0.0]
effort: [-139.8800048828125, 40.35000228881836, 123.74000549316406, 330.8699951171875]
---
header: 
  seq: 2127
  stamp: 
    secs: 1701559081
    nsecs: 913861647
  frame_id: ''
name: 
  - joint_1
  - joint_2
  - joint_3
  - joint_4
position: [-0.26384469866752625, -1.310019612312317, -0.36508744955062866, -0.8835729360580444]
velocity: [0.0, 0.0, 0.0, 0.0]
effort: [-139.8800048828125, 37.65999984741211, 126.43000030517578, 330.8699951171875]
---
header: 
  seq: 2128
  stamp: 
    secs: 1701559081
    nsecs: 945930054
  frame_id: ''
name: 
  - joint_1
  - joint_2
  - joint_3
  - joint_4
position: [-0.26384469866752625, -1.310019612312317, -0.36508744955062866, -0.8835729360580444]
velocity: [0.0, 0.0, 0.0, 0.0]
effort: [-139.8800048828125, 37.65999984741211, 123.74000549316406, 330.8699951171875]
---
header: 
  seq: 2129
  stamp: 
    secs: 1701559081
    nsecs: 977944760
  frame_id: ''
name: 
  - joint_1
  - joint_2
  - joint_3
  - joint_4
position: [-0.26384469866752625, -1.310019612312317, -0.36508744955062866, -0.8835729360580444]
velocity: [0.0, 0.0, 0.0, 0.0]
effort: [-139.8800048828125, 37.65999984741211, 126.43000030517578, 330.8699951171875]
---
header: 
  seq: 2130
  stamp: 
    secs: 1701559082
    nsecs:   9933724
  frame_id: ''
name: 
  - joint_1
  - joint_2
  - joint_3
  - joint_4
position: [-0.26384469866752625, -1.310019612312317, -0.36508744955062866, -0.8835729360580444]
velocity: [0.0, 0.0, 0.0, 0.0]
effort: [-139.8800048828125, 37.65999984741211, 129.1199951171875, 330.8699951171875]
---
header: 
  seq: 2131
  stamp: 
    secs: 1701559082
    nsecs:  41941675
  frame_id: ''
name: 
  - joint_1
  - joint_2
  - joint_3
  - joint_4
position: [-0.26384469866752625, -1.310019612312317, -0.36508744955062866, -0.8835729360580444]
velocity: [0.0, 0.0, 0.0, 0.0]
effort: [-139.8800048828125, 37.65999984741211, 123.74000549316406, 330.8699951171875]
---
header: 
  seq: 2132
  stamp: 
    secs: 1701559082
    nsecs:  73884098
  frame_id: ''
name: 
  - joint_1
  - joint_2
  - joint_3
  - joint_4
position: [-0.26384469866752625, -1.310019612312317, -0.36508744955062866, -0.8835729360580444]
velocity: [0.0, 0.0, 0.0, 0.0]
effort: [-139.8800048828125, 40.35000228881836, 126.43000030517578, 330.8699951171875]
---
header: 
  seq: 2133
  stamp: 
    secs: 1701559082
    nsecs: 105864146
  frame_id: ''
name: 
  - joint_1
  - joint_2
  - joint_3
  - joint_4
position: [-0.26384469866752625, -1.310019612312317, -0.36508744955062866, -0.8835729360580444]
velocity: [0.0, 0.0, 0.0, 0.0]
effort: [-139.8800048828125, 40.35000228881836, 126.43000030517578, 330.8699951171875]
---
header: 
  seq: 2134
  stamp: 
    secs: 1701559082
    nsecs: 137897362
  frame_id: ''
name: 
  - joint_1
  - joint_2
  - joint_3
  - joint_4
position: [-0.26384469866752625, -1.310019612312317, -0.36508744955062866, -0.8835729360580444]
velocity: [0.0, 0.0, 0.0, 0.0]
effort: [-139.8800048828125, 40.35000228881836, 126.43000030517578, 330.8699951171875]
---
header: 
  seq: 2135
  stamp: 
    secs: 1701559082
    nsecs: 169937763
  frame_id: ''
name: 
  - joint_1
  - joint_2
  - joint_3
  - joint_4
position: [-0.26384469866752625, -1.3084856271743774, -0.36508744955062866, -0.8835729360580444]
velocity: [0.0, 0.0, 0.0, 0.0]
effort: [-139.8800048828125, 40.35000228881836, 126.43000030517578, 330.8699951171875]
---
header: 
  seq: 2136
  stamp: 
    secs: 1701559082
    nsecs: 201856980
  frame_id: ''
name: 
  - joint_1
  - joint_2
  - joint_3
  - joint_4
position: [-0.26384469866752625, -1.310019612312317, -0.36508744955062866, -0.8835729360580444]
velocity: [0.0, 0.0, 0.0, 0.0]
effort: [-139.8800048828125, 37.65999984741211, 129.1199951171875, 330.8699951171875]
---
header: 
  seq: 2137
  stamp: 
    secs: 1701559082
    nsecs: 233928539
  frame_id: ''
name: 
  - joint_1
  - joint_2
  - joint_3
  - joint_4
position: [-0.26384469866752625, -1.310019612312317, -0.36508744955062866, -0.8835729360580444]
velocity: [0.0, 0.0, 0.0, 0.0]
effort: [-139.8800048828125, 37.65999984741211, 126.43000030517578, 330.8699951171875]
---
header: 
  seq: 2138
  stamp: 
    secs: 1701559082
    nsecs: 265907128
  frame_id: ''
name: 
  - joint_1
  - joint_2
  - joint_3
  - joint_4
position: [-0.26384469866752625, -1.310019612312317, -0.36508744955062866, -0.8851069211959839]
velocity: [0.0, 0.0, 0.0, 0.0]
effort: [-139.8800048828125, 37.65999984741211, 129.1199951171875, 330.8699951171875]
---
header: 
  seq: 2139
  stamp: 
    secs: 1701559082
    nsecs: 297839644
  frame_id: ''
name: 
  - joint_1
  - joint_2
  - joint_3
  - joint_4
position: [-0.26384469866752625, -1.310019612312317, -0.36508744955062866, -0.8835729360580444]
velocity: [0.0, 0.0, 0.0, 0.0]
effort: [-139.8800048828125, 37.65999984741211, 126.43000030517578, 330.8699951171875]
---
header: 
  seq: 2140
  stamp: 
    secs: 1701559082
    nsecs: 329860692
  frame_id: ''
name: 
  - joint_1
  - joint_2
  - joint_3
  - joint_4
position: [-0.26384469866752625, -1.310019612312317, -0.36508744955062866, -0.8835729360580444]
velocity: [0.0, 0.0, 0.0, 0.0]
effort: [-139.8800048828125, 40.35000228881836, 129.1199951171875, 328.17999267578125]
---
header: 
  seq: 2141
  stamp: 
    secs: 1701559082
    nsecs: 361921488
  frame_id: ''
name: 
  - joint_1
  - joint_2
  - joint_3
  - joint_4
position: [-0.26384469866752625, -1.310019612312317, -0.36508744955062866, -0.8835729360580444]
velocity: [0.0, 0.0, 0.0, 0.0]
effort: [-139.8800048828125, 40.35000228881836, 126.43000030517578, 328.17999267578125]
---
header: 
  seq: 2142
  stamp: 
    secs: 1701559082
    nsecs: 393929769
  frame_id: ''
name: 
  - joint_1
  - joint_2
  - joint_3
  - joint_4
position: [-0.2623107135295868, -1.310019612312317, -0.36508744955062866, -0.8835729360580444]
velocity: [0.0, 0.0, 0.0, 0.0]
effort: [-139.8800048828125, 37.65999984741211, 126.43000030517578, 330.8699951171875]
---
header: 
  seq: 2143
  stamp: 
    secs: 1701559082
    nsecs: 425931222
  frame_id: ''
name: 
  - joint_1
  - joint_2
  - joint_3
  - joint_4
position: [-0.26384469866752625, -1.310019612312317, -0.36508744955062866, -0.8835729360580444]
velocity: [0.0, 0.0, 0.0, 0.0]
effort: [-139.8800048828125, 37.65999984741211, 126.43000030517578, 330.8699951171875]
---
header: 
  seq: 2144
  stamp: 
    secs: 1701559082
    nsecs: 457872593
  frame_id: ''
name: 
  - joint_1
  - joint_2
  - joint_3
  - joint_4
position: [-0.26384469866752625, -1.310019612312317, -0.36508744955062866, -0.8835729360580444]
velocity: [0.0, 0.0, 0.0, 0.0]
effort: [-139.8800048828125, 40.35000228881836, 123.74000549316406, 330.8699951171875]
---
header: 
  seq: 2145
  stamp: 
    secs: 1701559082
    nsecs: 489834110
  frame_id: ''
name: 
  - joint_1
  - joint_2
  - joint_3
  - joint_4
position: [-0.26384469866752625, -1.310019612312317, -0.36508744955062866, -0.8835729360580444]
velocity: [0.0, 0.0, 0.0, 0.0]
effort: [-139.8800048828125, 37.65999984741211, 129.1199951171875, 330.8699951171875]
---
header: 
  seq: 2146
  stamp: 
    secs: 1701559082
    nsecs: 521850228
  frame_id: ''
name: 
  - joint_1
  - joint_2
  - joint_3
  - joint_4
position: [-0.26384469866752625, -1.310019612312317, -0.36508744955062866, -0.8835729360580444]
velocity: [0.0, 0.0, 0.0, 0.0]
effort: [-139.8800048828125, 40.35000228881836, 126.43000030517578, 330.8699951171875]
---
header: 
  seq: 2147
  stamp: 
    secs: 1701559082
    nsecs: 553895176
  frame_id: ''
name: 
  - joint_1
  - joint_2
  - joint_3
  - joint_4
position: [-0.26384469866752625, -1.310019612312317, -0.36508744955062866, -0.8835729360580444]
velocity: [0.0, 0.0, 0.0, 0.0]
effort: [-139.8800048828125, 37.65999984741211, 126.43000030517578, 330.8699951171875]
---
header: 
  seq: 2148
  stamp: 
    secs: 1701559082
    nsecs: 585877808
  frame_id: ''
name: 
  - joint_1
  - joint_2
  - joint_3
  - joint_4
position: [-0.26384469866752625, -1.310019612312317, -0.36508744955062866, -0.8835729360580444]
velocity: [0.0, 0.0, 0.0, 0.0]
effort: [-139.8800048828125, 37.65999984741211, 126.43000030517578, 330.8699951171875]
---
header: 
  seq: 2149
  stamp: 
    secs: 1701559082
    nsecs: 617914717
  frame_id: ''
name: 
  - joint_1
  - joint_2
  - joint_3
  - joint_4
position: [-0.26384469866752625, -1.310019612312317, -0.36508744955062866, -0.8835729360580444]
velocity: [0.0, 0.0, 0.0, 0.0]
effort: [-139.8800048828125, 37.65999984741211, 126.43000030517578, 330.8699951171875]
---
header: 
  seq: 2150
  stamp: 
    secs: 1701559082
    nsecs: 649883258
  frame_id: ''
name: 
  - joint_1
  - joint_2
  - joint_3
  - joint_4
position: [-0.26384469866752625, -1.310019612312317, -0.36508744955062866, -0.8835729360580444]
velocity: [0.0, 0.0, 0.0, 0.0]
effort: [-139.8800048828125, 40.35000228881836, 126.43000030517578, 330.8699951171875]
---
header: 
  seq: 2151
  stamp: 
    secs: 1701559082
    nsecs: 681782805
  frame_id: ''
name: 
  - joint_1
  - joint_2
  - joint_3
  - joint_4
position: [-0.26384469866752625, -1.310019612312317, -0.36508744955062866, -0.8835729360580444]
velocity: [0.0, 0.0, 0.0, 0.0]
effort: [-139.8800048828125, 37.65999984741211, 123.74000549316406, 330.8699951171875]
---
header: 
  seq: 2152
  stamp: 
    secs: 1701559082
    nsecs: 713768896
  frame_id: ''
name: 
  - joint_1
  - joint_2
  - joint_3
  - joint_4
position: [-0.26384469866752625, -1.310019612312317, -0.36508744955062866, -0.8835729360580444]
velocity: [0.0, 0.0, 0.0, 0.0]
effort: [-139.8800048828125, 40.35000228881836, 126.43000030517578, 330.8699951171875]
---
header: 
  seq: 2153
  stamp: 
    secs: 1701559082
    nsecs: 745881912
  frame_id: ''
name: 
  - joint_1
  - joint_2
  - joint_3
  - joint_4
position: [-0.26384469866752625, -1.310019612312317, -0.36508744955062866, -0.8835729360580444]
velocity: [0.0, 0.0, 0.0, 0.0]
effort: [-139.8800048828125, 37.65999984741211, 123.74000549316406, 330.8699951171875]
---
header: 
  seq: 2154
  stamp: 
    secs: 1701559082
    nsecs: 777901870
  frame_id: ''
name: 
  - joint_1
  - joint_2
  - joint_3
  - joint_4
position: [-0.26384469866752625, -1.310019612312317, -0.36508744955062866, -0.8835729360580444]
velocity: [0.0, 0.0, 0.0, 0.0]
effort: [-139.8800048828125, 37.65999984741211, 126.43000030517578, 330.8699951171875]
---
header: 
  seq: 2155
  stamp: 
    secs: 1701559082
    nsecs: 809866387
  frame_id: ''
name: 
  - joint_1
  - joint_2
  - joint_3
  - joint_4
position: [-0.26384469866752625, -1.310019612312317, -0.36508744955062866, -0.8835729360580444]
velocity: [0.0, 0.0, 0.0, 0.0]
effort: [-139.8800048828125, 37.65999984741211, 126.43000030517578, 330.8699951171875]
---
header: 
  seq: 2156
  stamp: 
    secs: 1701559082
    nsecs: 841886794
  frame_id: ''
name: 
  - joint_1
  - joint_2
  - joint_3
  - joint_4
position: [-0.26384469866752625, -1.310019612312317, -0.36508744955062866, -0.8835729360580444]
velocity: [0.0, 0.0, 0.0, 0.0]
effort: [-139.8800048828125, 40.35000228881836, 123.74000549316406, 328.17999267578125]
---
header: 
  seq: 2157
  stamp: 
    secs: 1701559082
    nsecs: 873858499
  frame_id: ''
name: 
  - joint_1
  - joint_2
  - joint_3
  - joint_4
position: [-0.26384469866752625, -1.310019612312317, -0.36508744955062866, -0.8835729360580444]
velocity: [0.0, 0.0, 0.0, 0.0]
effort: [-139.8800048828125, 40.35000228881836, 123.74000549316406, 330.8699951171875]
---
header: 
  seq: 2158
  stamp: 
    secs: 1701559082
    nsecs: 905838210
  frame_id: ''
name: 
  - joint_1
  - joint_2
  - joint_3
  - joint_4
position: [-0.26384469866752625, -1.310019612312317, -0.36508744955062866, -0.8835729360580444]
velocity: [0.0, 0.0, 0.0, 0.0]
effort: [-139.8800048828125, 40.35000228881836, 126.43000030517578, 330.8699951171875]
---
header: 
  seq: 2159
  stamp: 
    secs: 1701559082
    nsecs: 937873993
  frame_id: ''
name: 
  - joint_1
  - joint_2
  - joint_3
  - joint_4
position: [-0.26384469866752625, -1.310019612312317, -0.36508744955062866, -0.8835729360580444]
velocity: [0.0, 0.0, 0.0, 0.0]
effort: [-139.8800048828125, 37.65999984741211, 126.43000030517578, 330.8699951171875]
---
header: 
  seq: 2160
  stamp: 
    secs: 1701559082
    nsecs: 969890757
  frame_id: ''
name: 
  - joint_1
  - joint_2
  - joint_3
  - joint_4
position: [-0.26384469866752625, -1.310019612312317, -0.36508744955062866, -0.8835729360580444]
velocity: [0.0, 0.0, 0.0, 0.0]
effort: [-139.8800048828125, 37.65999984741211, 126.43000030517578, 330.8699951171875]
---
header: 
  seq: 2161
  stamp: 
    secs: 1701559083
    nsecs:   1899471
  frame_id: ''
name: 
  - joint_1
  - joint_2
  - joint_3
  - joint_4
position: [-0.26384469866752625, -1.310019612312317, -0.36508744955062866, -0.8835729360580444]
velocity: [0.0, 0.0, 0.0, 0.0]
effort: [-139.8800048828125, 40.35000228881836, 126.43000030517578, 330.8699951171875]
---
header: 
  seq: 2162
  stamp: 
    secs: 1701559083
    nsecs:  33831003
  frame_id: ''
name: 
  - joint_1
  - joint_2
  - joint_3
  - joint_4
position: [-0.26384469866752625, -1.310019612312317, -0.36508744955062866, -0.8835729360580444]
velocity: [0.0, 0.0, 0.0, 0.0]
effort: [-139.8800048828125, 37.65999984741211, 126.43000030517578, 330.8699951171875]
---
header: 
  seq: 2163
  stamp: 
    secs: 1701559083
    nsecs:  65783213
  frame_id: ''
name: 
  - joint_1
  - joint_2
  - joint_3
  - joint_4
position: [-0.26384469866752625, -1.310019612312317, -0.36508744955062866, -0.8835729360580444]
velocity: [0.0, 0.0, 0.0, 0.0]
effort: [-139.8800048828125, 40.35000228881836, 126.43000030517578, 330.8699951171875]
---
header: 
  seq: 2164
  stamp: 
    secs: 1701559083
    nsecs:  97759790
  frame_id: ''
name: 
  - joint_1
  - joint_2
  - joint_3
  - joint_4
position: [-0.26384469866752625, -1.310019612312317, -0.36508744955062866, -0.8835729360580444]
velocity: [0.0, 0.0, 0.0, 0.0]
effort: [-139.8800048828125, 37.65999984741211, 123.74000549316406, 330.8699951171875]
---
header: 
  seq: 2165
  stamp: 
    secs: 1701559083
    nsecs: 129804452
  frame_id: ''
name: 
  - joint_1
  - joint_2
  - joint_3
  - joint_4
position: [-0.26384469866752625, -1.310019612312317, -0.36508744955062866, -0.8835729360580444]
velocity: [0.0, 0.0, 0.0, 0.0]
effort: [-139.8800048828125, 34.970001220703125, 126.43000030517578, 330.8699951171875]
---
header: 
  seq: 2166
  stamp: 
    secs: 1701559083
    nsecs: 161855633
  frame_id: ''
name: 
  - joint_1
  - joint_2
  - joint_3
  - joint_4
position: [-0.26384469866752625, -1.310019612312317, -0.36508744955062866, -0.8835729360580444]
velocity: [0.0, 0.0, 0.0, 0.0]
effort: [-139.8800048828125, 40.35000228881836, 129.1199951171875, 330.8699951171875]
---
header: 
  seq: 2167
  stamp: 
    secs: 1701559083
    nsecs: 193908296
  frame_id: ''
name: 
  - joint_1
  - joint_2
  - joint_3
  - joint_4
position: [-0.26384469866752625, -1.310019612312317, -0.36508744955062866, -0.8835729360580444]
velocity: [0.0, 0.0, 0.0, 0.0]
effort: [-139.8800048828125, 40.35000228881836, 129.1199951171875, 328.17999267578125]
---
header: 
  seq: 2168
  stamp: 
    secs: 1701559083
    nsecs: 225904145
  frame_id: ''
name: 
  - joint_1
  - joint_2
  - joint_3
  - joint_4
position: [-0.26384469866752625, -1.310019612312317, -0.36508744955062866, -0.8835729360580444]
velocity: [0.0, 0.0, 0.0, 0.0]
effort: [-139.8800048828125, 40.35000228881836, 129.1199951171875, 330.8699951171875]
---
header: 
  seq: 2169
  stamp: 
    secs: 1701559083
    nsecs: 257887839
  frame_id: ''
name: 
  - joint_1
  - joint_2
  - joint_3
  - joint_4
position: [-0.26384469866752625, -1.310019612312317, -0.36508744955062866, -0.8835729360580444]
velocity: [0.0, 0.0, 0.0, 0.0]
effort: [-139.8800048828125, 40.35000228881836, 129.1199951171875, 330.8699951171875]
---
header: 
  seq: 2170
  stamp: 
    secs: 1701559083
    nsecs: 289804219
  frame_id: ''
name: 
  - joint_1
  - joint_2
  - joint_3
  - joint_4
position: [-0.26384469866752625, -1.310019612312317, -0.36508744955062866, -0.8835729360580444]
velocity: [0.0, 0.0, 0.0, 0.0]
effort: [-139.8800048828125, 37.65999984741211, 126.43000030517578, 330.8699951171875]
---
header: 
  seq: 2171
  stamp: 
    secs: 1701559083
    nsecs: 321808081
  frame_id: ''
name: 
  - joint_1
  - joint_2
  - joint_3
  - joint_4
position: [-0.26384469866752625, -1.310019612312317, -0.36508744955062866, -0.8835729360580444]
velocity: [0.0, 0.0, 0.0, 0.0]
effort: [-139.8800048828125, 40.35000228881836, 121.05000305175781, 330.8699951171875]
---
header: 
  seq: 2172
  stamp: 
    secs: 1701559083
    nsecs: 353903144
  frame_id: ''
name: 
  - joint_1
  - joint_2
  - joint_3
  - joint_4
position: [-0.26384469866752625, -1.310019612312317, -0.36508744955062866, -0.8835729360580444]
velocity: [0.0, 0.0, 0.0, 0.0]
effort: [-139.8800048828125, 40.35000228881836, 123.74000549316406, 328.17999267578125]
---
header: 
  seq: 2173
  stamp: 
    secs: 1701559083
    nsecs: 385887113
  frame_id: ''
name: 
  - joint_1
  - joint_2
  - joint_3
  - joint_4
position: [-0.26384469866752625, -1.310019612312317, -0.36508744955062866, -0.8835729360580444]
velocity: [0.0, 0.0, 0.0, 0.0]
effort: [-139.8800048828125, 37.65999984741211, 123.74000549316406, 328.17999267578125]
---
header: 
  seq: 2174
  stamp: 
    secs: 1701559083
    nsecs: 417848185
  frame_id: ''
name: 
  - joint_1
  - joint_2
  - joint_3
  - joint_4
position: [-0.26384469866752625, -1.310019612312317, -0.36508744955062866, -0.8835729360580444]
velocity: [0.0, 0.0, 0.0, 0.0]
effort: [-139.8800048828125, 37.65999984741211, 126.43000030517578, 328.17999267578125]
---
header: 
  seq: 2175
  stamp: 
    secs: 1701559083
    nsecs: 449853067
  frame_id: ''
name: 
  - joint_1
  - joint_2
  - joint_3
  - joint_4
position: [-0.26384469866752625, -1.310019612312317, -0.36508744955062866, -0.8835729360580444]
velocity: [0.0, 0.0, 0.0, 0.0]
effort: [-139.8800048828125, 37.65999984741211, 129.1199951171875, 328.17999267578125]
---
header: 
  seq: 2176
  stamp: 
    secs: 1701559083
    nsecs: 481789921
  frame_id: ''
name: 
  - joint_1
  - joint_2
  - joint_3
  - joint_4
position: [-0.26384469866752625, -1.310019612312317, -0.36508744955062866, -0.8835729360580444]
velocity: [0.0, 0.0, 0.0, 0.0]
effort: [-139.8800048828125, 37.65999984741211, 129.1199951171875, 328.17999267578125]
---
header: 
  seq: 2177
  stamp: 
    secs: 1701559083
    nsecs: 513730626
  frame_id: ''
name: 
  - joint_1
  - joint_2
  - joint_3
  - joint_4
position: [-0.26384469866752625, -1.310019612312317, -0.36508744955062866, -0.8835729360580444]
velocity: [0.0, 0.0, 0.0, 0.0]
effort: [-139.8800048828125, 37.65999984741211, 123.74000549316406, 328.17999267578125]
---
header: 
  seq: 2178
  stamp: 
    secs: 1701559083
    nsecs: 545774777
  frame_id: ''
name: 
  - joint_1
  - joint_2
  - joint_3
  - joint_4
position: [-0.26384469866752625, -1.310019612312317, -0.36508744955062866, -0.8835729360580444]
velocity: [0.0, 0.0, 0.0, 0.0]
effort: [-139.8800048828125, 40.35000228881836, 123.74000549316406, 328.17999267578125]
---
header: 
  seq: 2179
  stamp: 
    secs: 1701559083
    nsecs: 577724410
  frame_id: ''
name: 
  - joint_1
  - joint_2
  - joint_3
  - joint_4
position: [-0.26384469866752625, -1.310019612312317, -0.36508744955062866, -0.8835729360580444]
velocity: [0.0, 0.0, 0.0, 0.0]
effort: [-139.8800048828125, 40.35000228881836, 123.74000549316406, 328.17999267578125]
---
header: 
  seq: 2180
  stamp: 
    secs: 1701559083
    nsecs: 609763091
  frame_id: ''
name: 
  - joint_1
  - joint_2
  - joint_3
  - joint_4
position: [-0.26384469866752625, -1.310019612312317, -0.36508744955062866, -0.8835729360580444]
velocity: [0.0, 0.0, 0.0, 0.0]
effort: [-139.8800048828125, 40.35000228881836, 126.43000030517578, 328.17999267578125]
---
header: 
  seq: 2181
  stamp: 
    secs: 1701559083
    nsecs: 641775041
  frame_id: ''
name: 
  - joint_1
  - joint_2
  - joint_3
  - joint_4
position: [-0.26384469866752625, -1.310019612312317, -0.36508744955062866, -0.8835729360580444]
velocity: [0.0, 0.0, 0.0, 0.0]
effort: [-139.8800048828125, 40.35000228881836, 123.74000549316406, 328.17999267578125]
---
header: 
  seq: 2182
  stamp: 
    secs: 1701559083
    nsecs: 673730254
  frame_id: ''
name: 
  - joint_1
  - joint_2
  - joint_3
  - joint_4
position: [-0.26384469866752625, -1.310019612312317, -0.36508744955062866, -0.8835729360580444]
velocity: [0.0, 0.0, 0.0, 0.0]
effort: [-139.8800048828125, 40.35000228881836, 123.74000549316406, 328.17999267578125]
---
header: 
  seq: 2183
  stamp: 
    secs: 1701559083
    nsecs: 705786946
  frame_id: ''
name: 
  - joint_1
  - joint_2
  - joint_3
  - joint_4
position: [-0.26384469866752625, -1.310019612312317, -0.36508744955062866, -0.8835729360580444]
velocity: [0.0, 0.0, 0.0, 0.0]
effort: [-139.8800048828125, 40.35000228881836, 123.74000549316406, 328.17999267578125]
---
header: 
  seq: 2184
  stamp: 
    secs: 1701559083
    nsecs: 737780992
  frame_id: ''
name: 
  - joint_1
  - joint_2
  - joint_3
  - joint_4
position: [-0.26384469866752625, -1.3084856271743774, -0.36508744955062866, -0.8835729360580444]
velocity: [0.0, 0.0, 0.0, 0.0]
effort: [-139.8800048828125, 37.65999984741211, 126.43000030517578, 328.17999267578125]
---
header: 
  seq: 2185
  stamp: 
    secs: 1701559083
    nsecs: 769740865
  frame_id: ''
name: 
  - joint_1
  - joint_2
  - joint_3
  - joint_4
position: [-0.26384469866752625, -1.310019612312317, -0.36508744955062866, -0.8835729360580444]
velocity: [0.0, 0.0, 0.0, 0.0]
effort: [-139.8800048828125, 37.65999984741211, 123.74000549316406, 328.17999267578125]
---
header: 
  seq: 2186
  stamp: 
    secs: 1701559083
    nsecs: 801762911
  frame_id: ''
name: 
  - joint_1
  - joint_2
  - joint_3
  - joint_4
position: [-0.26384469866752625, -1.310019612312317, -0.36508744955062866, -0.8835729360580444]
velocity: [0.0, 0.0, 0.0, 0.0]
effort: [-139.8800048828125, 40.35000228881836, 123.74000549316406, 328.17999267578125]
---
header: 
  seq: 2187
  stamp: 
    secs: 1701559083
    nsecs: 833743391
  frame_id: ''
name: 
  - joint_1
  - joint_2
  - joint_3
  - joint_4
position: [-0.26384469866752625, -1.310019612312317, -0.36508744955062866, -0.8835729360580444]
velocity: [0.0, 0.0, 0.0, 0.0]
effort: [-139.8800048828125, 37.65999984741211, 126.43000030517578, 328.17999267578125]
---
header: 
  seq: 2188
  stamp: 
    secs: 1701559083
    nsecs: 865728991
  frame_id: ''
name: 
  - joint_1
  - joint_2
  - joint_3
  - joint_4
position: [-0.26384469866752625, -1.310019612312317, -0.36508744955062866, -0.8835729360580444]
velocity: [0.0, 0.0, 0.0, 0.0]
effort: [-139.8800048828125, 37.65999984741211, 121.05000305175781, 328.17999267578125]
---
header: 
  seq: 2189
  stamp: 
    secs: 1701559083
    nsecs: 897674949
  frame_id: ''
name: 
  - joint_1
  - joint_2
  - joint_3
  - joint_4
position: [-0.26384469866752625, -1.310019612312317, -0.36508744955062866, -0.8835729360580444]
velocity: [0.0, 0.0, 0.0, 0.0]
effort: [-139.8800048828125, 40.35000228881836, 118.36000061035156, 328.17999267578125]
---
header: 
  seq: 2190
  stamp: 
    secs: 1701559083
    nsecs: 929719681
  frame_id: ''
name: 
  - joint_1
  - joint_2
  - joint_3
  - joint_4
position: [-0.26384469866752625, -1.310019612312317, -0.36508744955062866, -0.8835729360580444]
velocity: [0.0, 0.0, 0.0, 0.0]
effort: [-139.8800048828125, 43.040000915527344, 118.36000061035156, 328.17999267578125]
---
header: 
  seq: 2191
  stamp: 
    secs: 1701559083
    nsecs: 961793030
  frame_id: ''
name: 
  - joint_1
  - joint_2
  - joint_3
  - joint_4
position: [-0.26384469866752625, -1.310019612312317, -0.36508744955062866, -0.8835729360580444]
velocity: [0.0, 0.0, 0.0, 0.0]
effort: [-139.8800048828125, 40.35000228881836, 121.05000305175781, 328.17999267578125]
---
header: 
  seq: 2192
  stamp: 
    secs: 1701559083
    nsecs: 993855217
  frame_id: ''
name: 
  - joint_1
  - joint_2
  - joint_3
  - joint_4
position: [-0.26384469866752625, -1.310019612312317, -0.36508744955062866, -0.8835729360580444]
velocity: [0.0, 0.0, 0.0, 0.0]
effort: [-139.8800048828125, 37.65999984741211, 123.74000549316406, 328.17999267578125]
---
header: 
  seq: 2193
  stamp: 
    secs: 1701559084
    nsecs:  25711856
  frame_id: ''
name: 
  - joint_1
  - joint_2
  - joint_3
  - joint_4
position: [-0.26384469866752625, -1.310019612312317, -0.36508744955062866, -0.8835729360580444]
velocity: [0.0, 0.0, 0.0, 0.0]
effort: [-139.8800048828125, 40.35000228881836, 123.74000549316406, 328.17999267578125]
---
header: 
  seq: 2194
  stamp: 
    secs: 1701559084
    nsecs:  57741980
  frame_id: ''
name: 
  - joint_1
  - joint_2
  - joint_3
  - joint_4
position: [-0.26384469866752625, -1.310019612312317, -0.36508744955062866, -0.8835729360580444]
velocity: [0.0, 0.0, 0.0, 0.0]
effort: [-139.8800048828125, 40.35000228881836, 126.43000030517578, 328.17999267578125]
---
header: 
  seq: 2195
  stamp: 
    secs: 1701559084
    nsecs:  89765478
  frame_id: ''
name: 
  - joint_1
  - joint_2
  - joint_3
  - joint_4
position: [-0.26384469866752625, -1.310019612312317, -0.36508744955062866, -0.8835729360580444]
velocity: [0.0, 0.0, 0.0, 0.0]
effort: [-139.8800048828125, 40.35000228881836, 129.1199951171875, 328.17999267578125]
---
header: 
  seq: 2196
  stamp: 
    secs: 1701559084
    nsecs: 121787918
  frame_id: ''
name: 
  - joint_1
  - joint_2
  - joint_3
  - joint_4
position: [-0.26384469866752625, -1.310019612312317, -0.36508744955062866, -0.8835729360580444]
velocity: [0.0, 0.0, 0.0, 0.0]
effort: [-139.8800048828125, 40.35000228881836, 126.43000030517578, 328.17999267578125]
---
header: 
  seq: 2197
  stamp: 
    secs: 1701559084
    nsecs: 153684599
  frame_id: ''
name: 
  - joint_1
  - joint_2
  - joint_3
  - joint_4
position: [-0.26384469866752625, -1.310019612312317, -0.36508744955062866, -0.8835729360580444]
velocity: [0.0, 0.0, 0.0, 0.0]
effort: [-139.8800048828125, 40.35000228881836, 126.43000030517578, 328.17999267578125]
---
header: 
  seq: 2198
  stamp: 
    secs: 1701559084
    nsecs: 185697232
  frame_id: ''
name: 
  - joint_1
  - joint_2
  - joint_3
  - joint_4
position: [-0.26384469866752625, -1.310019612312317, -0.36508744955062866, -0.8835729360580444]
velocity: [0.0, 0.0, 0.0, 0.0]
effort: [-139.8800048828125, 37.65999984741211, 126.43000030517578, 328.17999267578125]
---
header: 
  seq: 2199
  stamp: 
    secs: 1701559084
    nsecs: 217716050
  frame_id: ''
name: 
  - joint_1
  - joint_2
  - joint_3
  - joint_4
position: [-0.26384469866752625, -1.310019612312317, -0.36508744955062866, -0.8835729360580444]
velocity: [0.0, 0.0, 0.0, 0.0]
effort: [-139.8800048828125, 37.65999984741211, 123.74000549316406, 328.17999267578125]
---
header: 
  seq: 2200
  stamp: 
    secs: 1701559084
    nsecs: 249741734
  frame_id: ''
name: 
  - joint_1
  - joint_2
  - joint_3
  - joint_4
position: [-0.26384469866752625, -1.310019612312317, -0.36508744955062866, -0.8835729360580444]
velocity: [0.0, 0.0, 0.0, 0.0]
effort: [-139.8800048828125, 37.65999984741211, 126.43000030517578, 328.17999267578125]
---
header: 
  seq: 2201
  stamp: 
    secs: 1701559084
    nsecs: 281763988
  frame_id: ''
name: 
  - joint_1
  - joint_2
  - joint_3
  - joint_4
position: [-0.26384469866752625, -1.310019612312317, -0.36508744955062866, -0.8835729360580444]
velocity: [0.0, 0.0, 0.0, 0.0]
effort: [-139.8800048828125, 40.35000228881836, 129.1199951171875, 328.17999267578125]
---
header: 
  seq: 2202
  stamp: 
    secs: 1701559084
    nsecs: 313857465
  frame_id: ''
name: 
  - joint_1
  - joint_2
  - joint_3
  - joint_4
position: [-0.26384469866752625, -1.310019612312317, -0.36508744955062866, -0.8835729360580444]
velocity: [0.0, 0.0, 0.0, 0.0]
effort: [-139.8800048828125, 37.65999984741211, 126.43000030517578, 328.17999267578125]
---
header: 
  seq: 2203
  stamp: 
    secs: 1701559084
    nsecs: 345714060
  frame_id: ''
name: 
  - joint_1
  - joint_2
  - joint_3
  - joint_4
position: [-0.26384469866752625, -1.310019612312317, -0.36508744955062866, -0.8835729360580444]
velocity: [0.0, 0.0, 0.0, 0.0]
effort: [-139.8800048828125, 40.35000228881836, 123.74000549316406, 328.17999267578125]
---
header: 
  seq: 2204
  stamp: 
    secs: 1701559084
    nsecs: 377707343
  frame_id: ''
name: 
  - joint_1
  - joint_2
  - joint_3
  - joint_4
position: [-0.26384469866752625, -1.310019612312317, -0.36508744955062866, -0.8835729360580444]
velocity: [0.0, 0.0, 0.0, 0.0]
effort: [-139.8800048828125, 34.970001220703125, 126.43000030517578, 328.17999267578125]
---
header: 
  seq: 2205
  stamp: 
    secs: 1701559084
    nsecs: 409703914
  frame_id: ''
name: 
  - joint_1
  - joint_2
  - joint_3
  - joint_4
position: [-0.26384469866752625, -1.310019612312317, -0.36508744955062866, -0.8835729360580444]
velocity: [0.0, 0.0, 0.0, 0.0]
effort: [-139.8800048828125, 34.970001220703125, 126.43000030517578, 328.17999267578125]
---
header: 
  seq: 2206
  stamp: 
    secs: 1701559084
    nsecs: 441722209
  frame_id: ''
name: 
  - joint_1
  - joint_2
  - joint_3
  - joint_4
position: [-0.26384469866752625, -1.310019612312317, -0.36508744955062866, -0.8835729360580444]
velocity: [0.0, 0.0, 0.0, 0.0]
effort: [-139.8800048828125, 37.65999984741211, 129.1199951171875, 328.17999267578125]
---
header: 
  seq: 2207
  stamp: 
    secs: 1701559084
    nsecs: 473722973
  frame_id: ''
name: 
  - joint_1
  - joint_2
  - joint_3
  - joint_4
position: [-0.26384469866752625, -1.310019612312317, -0.36508744955062866, -0.8835729360580444]
velocity: [0.0, 0.0, 0.0, 0.0]
effort: [-139.8800048828125, 40.35000228881836, 126.43000030517578, 328.17999267578125]
---
header: 
  seq: 2208
  stamp: 
    secs: 1701559084
    nsecs: 505688100
  frame_id: ''
name: 
  - joint_1
  - joint_2
  - joint_3
  - joint_4
position: [-0.26384469866752625, -1.310019612312317, -0.36508744955062866, -0.8835729360580444]
velocity: [0.0, 0.0, 0.0, 0.0]
effort: [-139.8800048828125, 37.65999984741211, 123.74000549316406, 328.17999267578125]
---
header: 
  seq: 2209
  stamp: 
    secs: 1701559084
    nsecs: 537685763
  frame_id: ''
name: 
  - joint_1
  - joint_2
  - joint_3
  - joint_4
position: [-0.2623107135295868, -1.310019612312317, -0.36508744955062866, -0.8835729360580444]
velocity: [0.0, 0.0, 0.0, 0.0]
effort: [-139.8800048828125, 40.35000228881836, 126.43000030517578, 328.17999267578125]
---
header: 
  seq: 2210
  stamp: 
    secs: 1701559084
    nsecs: 569674024
  frame_id: ''
name: 
  - joint_1
  - joint_2
  - joint_3
  - joint_4
position: [-0.26384469866752625, -1.310019612312317, -0.36508744955062866, -0.8835729360580444]
velocity: [0.0, 0.0, 0.0, 0.0]
effort: [-139.8800048828125, 40.35000228881836, 126.43000030517578, 328.17999267578125]
---
header: 
  seq: 2211
  stamp: 
    secs: 1701559084
    nsecs: 601692428
  frame_id: ''
name: 
  - joint_1
  - joint_2
  - joint_3
  - joint_4
position: [-0.26384469866752625, -1.310019612312317, -0.36508744955062866, -0.8835729360580444]
velocity: [0.0, 0.0, 0.0, 0.0]
effort: [-139.8800048828125, 34.970001220703125, 126.43000030517578, 328.17999267578125]
---
header: 
  seq: 2212
  stamp: 
    secs: 1701559084
    nsecs: 633743665
  frame_id: ''
name: 
  - joint_1
  - joint_2
  - joint_3
  - joint_4
position: [-0.26384469866752625, -1.310019612312317, -0.36508744955062866, -0.8835729360580444]
velocity: [0.0, 0.0, 0.0, 0.0]
effort: [-139.8800048828125, 40.35000228881836, 126.43000030517578, 328.17999267578125]
---
header: 
  seq: 2213
  stamp: 
    secs: 1701559084
    nsecs: 665733130
  frame_id: ''
name: 
  - joint_1
  - joint_2
  - joint_3
  - joint_4
position: [-0.26384469866752625, -1.310019612312317, -0.36508744955062866, -0.8835729360580444]
velocity: [0.0, 0.0, 0.0, 0.0]
effort: [-139.8800048828125, 40.35000228881836, 126.43000030517578, 328.17999267578125]
---
header: 
  seq: 2214
  stamp: 
    secs: 1701559084
    nsecs: 697724658
  frame_id: ''
name: 
  - joint_1
  - joint_2
  - joint_3
  - joint_4
position: [-0.26384469866752625, -1.310019612312317, -0.36508744955062866, -0.8835729360580444]
velocity: [0.0, 0.0, 0.0, 0.0]
effort: [-139.8800048828125, 34.970001220703125, 126.43000030517578, 328.17999267578125]
---
header: 
  seq: 2215
  stamp: 
    secs: 1701559084
    nsecs: 729691361
  frame_id: ''
name: 
  - joint_1
  - joint_2
  - joint_3
  - joint_4
position: [-0.26384469866752625, -1.310019612312317, -0.36508744955062866, -0.8835729360580444]
velocity: [0.0, 0.0, 0.0, 0.0]
effort: [-139.8800048828125, 37.65999984741211, 123.74000549316406, 328.17999267578125]
---
header: 
  seq: 2216
  stamp: 
    secs: 1701559084
    nsecs: 761673812
  frame_id: ''
name: 
  - joint_1
  - joint_2
  - joint_3
  - joint_4
position: [-0.26384469866752625, -1.310019612312317, -0.36508744955062866, -0.8835729360580444]
velocity: [0.0, 0.0, 0.0, 0.0]
effort: [-139.8800048828125, 37.65999984741211, 123.74000549316406, 328.17999267578125]
---
header: 
  seq: 2217
  stamp: 
    secs: 1701559084
    nsecs: 793688555
  frame_id: ''
name: 
  - joint_1
  - joint_2
  - joint_3
  - joint_4
position: [-0.26384469866752625, -1.310019612312317, -0.36508744955062866, -0.8835729360580444]
velocity: [0.0, 0.0, 0.0, 0.0]
effort: [-139.8800048828125, 37.65999984741211, 126.43000030517578, 328.17999267578125]
---
header: 
  seq: 2218
  stamp: 
    secs: 1701559084
    nsecs: 825715237
  frame_id: ''
name: 
  - joint_1
  - joint_2
  - joint_3
  - joint_4
position: [-0.26384469866752625, -1.310019612312317, -0.36508744955062866, -0.8835729360580444]
velocity: [0.0, 0.0, 0.0, 0.0]
effort: [-139.8800048828125, 37.65999984741211, 129.1199951171875, 328.17999267578125]
---
header: 
  seq: 2219
  stamp: 
    secs: 1701559084
    nsecs: 857734587
  frame_id: ''
name: 
  - joint_1
  - joint_2
  - joint_3
  - joint_4
position: [-0.26384469866752625, -1.3084856271743774, -0.36508744955062866, -0.8835729360580444]
velocity: [0.0, 0.0, 0.0, 0.0]
effort: [-139.8800048828125, 37.65999984741211, 126.43000030517578, 328.17999267578125]
---
header: 
  seq: 2220
  stamp: 
    secs: 1701559084
    nsecs: 889746272
  frame_id: ''
name: 
  - joint_1
  - joint_2
  - joint_3
  - joint_4
position: [-0.26384469866752625, -1.310019612312317, -0.36508744955062866, -0.8835729360580444]
velocity: [0.0, 0.0, 0.0, 0.0]
effort: [-139.8800048828125, 37.65999984741211, 129.1199951171875, 328.17999267578125]
---
header: 
  seq: 2221
  stamp: 
    secs: 1701559084
    nsecs: 921664971
  frame_id: ''
name: 
  - joint_1
  - joint_2
  - joint_3
  - joint_4
position: [-0.26384469866752625, -1.310019612312317, -0.36508744955062866, -0.8835729360580444]
velocity: [0.0, 0.0, 0.0, 0.0]
effort: [-139.8800048828125, 40.35000228881836, 126.43000030517578, 328.17999267578125]
---
header: 
  seq: 2222
  stamp: 
    secs: 1701559084
    nsecs: 953650098
  frame_id: ''
name: 
  - joint_1
  - joint_2
  - joint_3
  - joint_4
position: [-0.26384469866752625, -1.310019612312317, -0.36508744955062866, -0.8835729360580444]
velocity: [0.0, 0.0, 0.0, 0.0]
effort: [-139.8800048828125, 37.65999984741211, 129.1199951171875, 328.17999267578125]
---
header: 
  seq: 2223
  stamp: 
    secs: 1701559084
    nsecs: 985669072
  frame_id: ''
name: 
  - joint_1
  - joint_2
  - joint_3
  - joint_4
position: [-0.26384469866752625, -1.310019612312317, -0.36508744955062866, -0.8835729360580444]
velocity: [0.0, 0.0, 0.0, 0.0]
effort: [-139.8800048828125, 40.35000228881836, 126.43000030517578, 328.17999267578125]
---
header: 
  seq: 2224
  stamp: 
    secs: 1701559085
    nsecs:  17667240
  frame_id: ''
name: 
  - joint_1
  - joint_2
  - joint_3
  - joint_4
position: [-0.26384469866752625, -1.310019612312317, -0.36508744955062866, -0.8835729360580444]
velocity: [0.0, 0.0, 0.0, 0.0]
effort: [-139.8800048828125, 37.65999984741211, 129.1199951171875, 328.17999267578125]
---
header: 
  seq: 2225
  stamp: 
    secs: 1701559085
    nsecs:  49685680
  frame_id: ''
name: 
  - joint_1
  - joint_2
  - joint_3
  - joint_4
position: [-0.26384469866752625, -1.310019612312317, -0.36508744955062866, -0.8835729360580444]
velocity: [0.0, 0.0, 0.0, 0.0]
effort: [-139.8800048828125, 37.65999984741211, 126.43000030517578, 328.17999267578125]
---
header: 
  seq: 2226
  stamp: 
    secs: 1701559085
    nsecs:  81722539
  frame_id: ''
name: 
  - joint_1
  - joint_2
  - joint_3
  - joint_4
position: [-0.26384469866752625, -1.310019612312317, -0.36508744955062866, -0.8835729360580444]
velocity: [0.0, 0.0, 0.0, 0.0]
effort: [-139.8800048828125, 40.35000228881836, 129.1199951171875, 328.17999267578125]
---
header: 
  seq: 2227
  stamp: 
    secs: 1701559085
    nsecs: 113762770
  frame_id: ''
name: 
  - joint_1
  - joint_2
  - joint_3
  - joint_4
position: [-0.26384469866752625, -1.310019612312317, -0.36508744955062866, -0.8835729360580444]
velocity: [0.0, 0.0, 0.0, 0.0]
effort: [-139.8800048828125, 37.65999984741211, 126.43000030517578, 328.17999267578125]
---
header: 
  seq: 2228
  stamp: 
    secs: 1701559085
    nsecs: 145651869
  frame_id: ''
name: 
  - joint_1
  - joint_2
  - joint_3
  - joint_4
position: [-0.26384469866752625, -1.310019612312317, -0.36508744955062866, -0.8835729360580444]
velocity: [0.0, 0.0, 0.0, 0.0]
effort: [-139.8800048828125, 37.65999984741211, 126.43000030517578, 328.17999267578125]
---
header: 
  seq: 2229
  stamp: 
    secs: 1701559085
    nsecs: 177666805
  frame_id: ''
name: 
  - joint_1
  - joint_2
  - joint_3
  - joint_4
position: [-0.26384469866752625, -1.310019612312317, -0.36508744955062866, -0.8835729360580444]
velocity: [0.0, 0.0, 0.0, 0.0]
effort: [-139.8800048828125, 37.65999984741211, 126.43000030517578, 328.17999267578125]
---
header: 
  seq: 2230
  stamp: 
    secs: 1701559085
    nsecs: 209661470
  frame_id: ''
name: 
  - joint_1
  - joint_2
  - joint_3
  - joint_4
position: [-0.26384469866752625, -1.310019612312317, -0.36508744955062866, -0.8835729360580444]
velocity: [0.0, 0.0, 0.0, 0.0]
effort: [-139.8800048828125, 37.65999984741211, 126.43000030517578, 328.17999267578125]
---
header: 
  seq: 2231
  stamp: 
    secs: 1701559085
    nsecs: 241640883
  frame_id: ''
name: 
  - joint_1
  - joint_2
  - joint_3
  - joint_4
position: [-0.26384469866752625, -1.310019612312317, -0.36508744955062866, -0.8851069211959839]
velocity: [0.0, 0.0, 0.0, 0.0]
effort: [-139.8800048828125, 37.65999984741211, 123.74000549316406, 328.17999267578125]
---
header: 
  seq: 2232
  stamp: 
    secs: 1701559085
    nsecs: 273711566
  frame_id: ''
name: 
  - joint_1
  - joint_2
  - joint_3
  - joint_4
position: [-0.26384469866752625, -1.310019612312317, -0.36508744955062866, -0.8835729360580444]
velocity: [0.0, 0.0, 0.0, 0.0]
effort: [-139.8800048828125, 37.65999984741211, 126.43000030517578, 328.17999267578125]
---
header: 
  seq: 2233
  stamp: 
    secs: 1701559085
    nsecs: 305747285
  frame_id: ''
name: 
  - joint_1
  - joint_2
  - joint_3
  - joint_4
position: [-0.26384469866752625, -1.310019612312317, -0.36508744955062866, -0.8835729360580444]
velocity: [0.0, 0.0, 0.0, 0.0]
effort: [-139.8800048828125, 40.35000228881836, 126.43000030517578, 328.17999267578125]
---
header: 
  seq: 2234
  stamp: 
    secs: 1701559085
    nsecs: 337645584
  frame_id: ''
name: 
  - joint_1
  - joint_2
  - joint_3
  - joint_4
position: [-0.26384469866752625, -1.310019612312317, -0.36508744955062866, -0.8835729360580444]
velocity: [0.0, 0.0, 0.0, 0.0]
effort: [-139.8800048828125, 37.65999984741211, 126.43000030517578, 328.17999267578125]
---
header: 
  seq: 2235
  stamp: 
    secs: 1701559085
    nsecs: 369615215
  frame_id: ''
name: 
  - joint_1
  - joint_2
  - joint_3
  - joint_4
position: [-0.26384469866752625, -1.310019612312317, -0.36508744955062866, -0.8835729360580444]
velocity: [0.0, 0.0, 0.0, 0.0]
effort: [-139.8800048828125, 37.65999984741211, 126.43000030517578, 328.17999267578125]
---
header: 
  seq: 2236
  stamp: 
    secs: 1701559085
    nsecs: 401666193
  frame_id: ''
name: 
  - joint_1
  - joint_2
  - joint_3
  - joint_4
position: [-0.26384469866752625, -1.310019612312317, -0.36508744955062866, -0.8835729360580444]
velocity: [0.0, 0.0, 0.0, 0.0]
effort: [-139.8800048828125, 34.970001220703125, 126.43000030517578, 328.17999267578125]
---
header: 
  seq: 2237
  stamp: 
    secs: 1701559085
    nsecs: 433668144
  frame_id: ''
name: 
  - joint_1
  - joint_2
  - joint_3
  - joint_4
position: [-0.26384469866752625, -1.310019612312317, -0.36508744955062866, -0.8851069211959839]
velocity: [0.0, 0.0, 0.0, 0.0]
effort: [-139.8800048828125, 37.65999984741211, 126.43000030517578, 328.17999267578125]
---
header: 
  seq: 2238
  stamp: 
    secs: 1701559085
    nsecs: 465664596
  frame_id: ''
name: 
  - joint_1
  - joint_2
  - joint_3
  - joint_4
position: [-0.26384469866752625, -1.310019612312317, -0.36508744955062866, -0.8835729360580444]
velocity: [0.0, 0.0, 0.0, 0.0]
effort: [-139.8800048828125, 37.65999984741211, 129.1199951171875, 328.17999267578125]
---
header: 
  seq: 2239
  stamp: 
    secs: 1701559085
    nsecs: 497767987
  frame_id: ''
name: 
  - joint_1
  - joint_2
  - joint_3
  - joint_4
position: [-0.2623107135295868, -1.310019612312317, -0.36508744955062866, -0.8835729360580444]
velocity: [0.0, 0.0, 0.0, 0.0]
effort: [-139.8800048828125, 37.65999984741211, 123.74000549316406, 328.17999267578125]
---
header: 
  seq: 2240
  stamp: 
    secs: 1701559085
    nsecs: 529592544
  frame_id: ''
name: 
  - joint_1
  - joint_2
  - joint_3
  - joint_4
position: [-0.26384469866752625, -1.310019612312317, -0.36508744955062866, -0.8835729360580444]
velocity: [0.0, 0.0, 0.0, 0.0]
effort: [-139.8800048828125, 40.35000228881836, 126.43000030517578, 328.17999267578125]
---
header: 
  seq: 2241
  stamp: 
    secs: 1701559085
    nsecs: 561631843
  frame_id: ''
name: 
  - joint_1
  - joint_2
  - joint_3
  - joint_4
position: [-0.26384469866752625, -1.310019612312317, -0.36508744955062866, -0.8835729360580444]
velocity: [0.0, 0.0, 0.0, 0.0]
effort: [-139.8800048828125, 34.970001220703125, 129.1199951171875, 328.17999267578125]
---
header: 
  seq: 2242
  stamp: 
    secs: 1701559085
    nsecs: 593570807
  frame_id: ''
name: 
  - joint_1
  - joint_2
  - joint_3
  - joint_4
position: [-0.26384469866752625, -1.310019612312317, -0.36508744955062866, -0.8835729360580444]
velocity: [0.0, 0.0, 0.0, 0.0]
effort: [-139.8800048828125, 40.35000228881836, 126.43000030517578, 328.17999267578125]
---
header: 
  seq: 2243
  stamp: 
    secs: 1701559085
    nsecs: 625613793
  frame_id: ''
name: 
  - joint_1
  - joint_2
  - joint_3
  - joint_4
position: [-0.26384469866752625, -1.310019612312317, -0.36508744955062866, -0.8835729360580444]
velocity: [0.0, 0.0, 0.0, 0.0]
effort: [-139.8800048828125, 34.970001220703125, 126.43000030517578, 328.17999267578125]
---
header: 
  seq: 2244
  stamp: 
    secs: 1701559085
    nsecs: 657668834
  frame_id: ''
name: 
  - joint_1
  - joint_2
  - joint_3
  - joint_4
position: [-0.26384469866752625, -1.310019612312317, -0.36508744955062866, -0.8835729360580444]
velocity: [0.0, 0.0, 0.0, 0.0]
effort: [-139.8800048828125, 34.970001220703125, 129.1199951171875, 328.17999267578125]
---
header: 
  seq: 2245
  stamp: 
    secs: 1701559085
    nsecs: 689666201
  frame_id: ''
name: 
  - joint_1
  - joint_2
  - joint_3
  - joint_4
position: [-0.26384469866752625, -1.310019612312317, -0.36508744955062866, -0.8835729360580444]
velocity: [0.0, 0.0, 0.0, 0.0]
effort: [-139.8800048828125, 34.970001220703125, 129.1199951171875, 328.17999267578125]
---
header: 
  seq: 2246
  stamp: 
    secs: 1701559085
    nsecs: 721743034
  frame_id: ''
name: 
  - joint_1
  - joint_2
  - joint_3
  - joint_4
position: [-0.26384469866752625, -1.310019612312317, -0.36508744955062866, -0.8835729360580444]
velocity: [0.0, 0.0, 0.0, 0.0]
effort: [-139.8800048828125, 34.970001220703125, 126.43000030517578, 328.17999267578125]
---
header: 
  seq: 2247
  stamp: 
    secs: 1701559085
    nsecs: 756830950
  frame_id: ''
name: 
  - joint_1
  - joint_2
  - joint_3
  - joint_4
position: [-0.26384469866752625, -1.310019612312317, -0.36508744955062866, -0.8835729360580444]
velocity: [0.0, 0.0, 0.0, 0.0]
effort: [-139.8800048828125, 37.65999984741211, 126.43000030517578, 325.4900207519531]
---
header: 
  seq: 2248
  stamp: 
    secs: 1701559085
    nsecs: 785568530
  frame_id: ''
name: 
  - joint_1
  - joint_2
  - joint_3
  - joint_4
position: [-0.26384469866752625, -1.310019612312317, -0.36508744955062866, -0.8835729360580444]
velocity: [0.0, 0.0, 0.0, 0.0]
effort: [-139.8800048828125, 40.35000228881836, 129.1199951171875, 325.4900207519531]
---
header: 
  seq: 2249
  stamp: 
    secs: 1701559085
    nsecs: 817604581
  frame_id: ''
name: 
  - joint_1
  - joint_2
  - joint_3
  - joint_4
position: [-0.26384469866752625, -1.310019612312317, -0.36508744955062866, -0.8835729360580444]
velocity: [0.0, 0.0, 0.0, 0.0]
effort: [-139.8800048828125, 37.65999984741211, 126.43000030517578, 325.4900207519531]
---
