header: 
  seq: 5113
  stamp: 
    secs: 1701739948
    nsecs: 386717756
  frame_id: ''
name: 
  - joint_1
  - joint_2
  - joint_3
  - joint_4
position: [-0.4555923044681549, -1.4005244970321655, -0.2684466540813446, -0.928058385848999]
velocity: [0.0, 0.0, 0.0, 0.0]
effort: [-53.80000305175781, 72.6300048828125, 96.84000396728516, 43.040000915527344]
---
header: 
  seq: 5114
  stamp: 
    secs: 1701739948
    nsecs: 418703379
  frame_id: ''
name: 
  - joint_1
  - joint_2
  - joint_3
  - joint_4
position: [-0.4555923044681549, -1.4005244970321655, -0.2684466540813446, -0.928058385848999]
velocity: [0.0, 0.0, 0.0, 0.0]
effort: [-53.80000305175781, 75.31999969482422, 94.1500015258789, 43.040000915527344]
---
header: 
  seq: 5115
  stamp: 
    secs: 1701739948
    nsecs: 450734792
  frame_id: ''
name: 
  - joint_1
  - joint_2
  - joint_3
  - joint_4
position: [-0.4555923044681549, -1.4005244970321655, -0.26691266894340515, -0.928058385848999]
velocity: [0.0, 0.0, 0.0, 0.0]
effort: [-53.80000305175781, 75.31999969482422, 96.84000396728516, 43.040000915527344]
---
header: 
  seq: 5116
  stamp: 
    secs: 1701739948
    nsecs: 482931872
  frame_id: ''
name: 
  - joint_1
  - joint_2
  - joint_3
  - joint_4
position: [-0.4555923044681549, -1.4005244970321655, -0.2684466540813446, -0.928058385848999]
velocity: [0.0, 0.0, 0.0, 0.0]
effort: [-53.80000305175781, 75.31999969482422, 91.45999908447266, 43.040000915527344]
---
header: 
  seq: 5117
  stamp: 
    secs: 1701739948
    nsecs: 514705773
  frame_id: ''
name: 
  - joint_1
  - joint_2
  - joint_3
  - joint_4
position: [-0.4555923044681549, -1.4005244970321655, -0.2684466540813446, -0.928058385848999]
velocity: [0.0, 0.0, 0.0, 0.0]
effort: [-53.80000305175781, 75.31999969482422, 96.84000396728516, 43.040000915527344]
---
header: 
  seq: 5118
  stamp: 
    secs: 1701739948
    nsecs: 546662292
  frame_id: ''
name: 
  - joint_1
  - joint_2
  - joint_3
  - joint_4
position: [-0.4555923044681549, -1.4005244970321655, -0.2684466540813446, -0.928058385848999]
velocity: [0.0, 0.0, 0.0, 0.0]
effort: [-53.80000305175781, 72.6300048828125, 99.52999877929688, 43.040000915527344]
---
header: 
  seq: 5119
  stamp: 
    secs: 1701739948
    nsecs: 578660901
  frame_id: ''
name: 
  - joint_1
  - joint_2
  - joint_3
  - joint_4
position: [-0.4555923044681549, -1.4005244970321655, -0.2684466540813446, -0.928058385848999]
velocity: [0.0, 0.0, 0.0, 0.0]
effort: [-53.80000305175781, 75.31999969482422, 94.1500015258789, 43.040000915527344]
---
header: 
  seq: 5120
  stamp: 
    secs: 1701739948
    nsecs: 610720779
  frame_id: ''
name: 
  - joint_1
  - joint_2
  - joint_3
  - joint_4
position: [-0.4555923044681549, -1.4005244970321655, -0.2684466540813446, -0.928058385848999]
velocity: [0.0, 0.0, 0.0, 0.0]
effort: [-53.80000305175781, 72.6300048828125, 96.84000396728516, 43.040000915527344]
---
header: 
  seq: 5121
  stamp: 
    secs: 1701739948
    nsecs: 642740391
  frame_id: ''
name: 
  - joint_1
  - joint_2
  - joint_3
  - joint_4
position: [-0.4555923044681549, -1.4005244970321655, -0.2684466540813446, -0.928058385848999]
velocity: [0.0, 0.0, 0.0, 0.0]
effort: [-53.80000305175781, 72.6300048828125, 96.84000396728516, 43.040000915527344]
---
header: 
  seq: 5122
  stamp: 
    secs: 1701739948
    nsecs: 674776336
  frame_id: ''
name: 
  - joint_1
  - joint_2
  - joint_3
  - joint_4
position: [-0.4555923044681549, -1.4005244970321655, -0.2684466540813446, -0.928058385848999]
velocity: [0.0, 0.0, 0.0, 0.0]
effort: [-53.80000305175781, 72.6300048828125, 96.84000396728516, 43.040000915527344]
---
header: 
  seq: 5123
  stamp: 
    secs: 1701739948
    nsecs: 706813969
  frame_id: ''
name: 
  - joint_1
  - joint_2
  - joint_3
  - joint_4
position: [-0.4555923044681549, -1.4005244970321655, -0.2684466540813446, -0.928058385848999]
velocity: [0.0, 0.0, 0.0, 0.0]
effort: [-53.80000305175781, 75.31999969482422, 96.84000396728516, 43.040000915527344]
---
header: 
  seq: 5124
  stamp: 
    secs: 1701739948
    nsecs: 738661910
  frame_id: ''
name: 
  - joint_1
  - joint_2
  - joint_3
  - joint_4
position: [-0.4555923044681549, -1.4005244970321655, -0.2684466540813446, -0.928058385848999]
velocity: [0.0, 0.0, 0.0, 0.0]
effort: [-53.80000305175781, 75.31999969482422, 94.1500015258789, 43.040000915527344]
---
header: 
  seq: 5125
  stamp: 
    secs: 1701739948
    nsecs: 770660039
  frame_id: ''
name: 
  - joint_1
  - joint_2
  - joint_3
  - joint_4
position: [-0.4555923044681549, -1.4005244970321655, -0.2684466540813446, -0.928058385848999]
velocity: [0.0, 0.0, 0.0, 0.0]
effort: [-53.80000305175781, 75.31999969482422, 94.1500015258789, 43.040000915527344]
---
header: 
  seq: 5126
  stamp: 
    secs: 1701739948
    nsecs: 802723826
  frame_id: ''
name: 
  - joint_1
  - joint_2
  - joint_3
  - joint_4
position: [-0.4555923044681549, -1.4005244970321655, -0.2684466540813446, -0.928058385848999]
velocity: [0.0, 0.0, 0.0, 0.0]
effort: [-53.80000305175781, 75.31999969482422, 94.1500015258789, 43.040000915527344]
---
header: 
  seq: 5127
  stamp: 
    secs: 1701739948
    nsecs: 834753326
  frame_id: ''
name: 
  - joint_1
  - joint_2
  - joint_3
  - joint_4
position: [-0.4555923044681549, -1.4005244970321655, -0.2684466540813446, -0.928058385848999]
velocity: [0.0, 0.0, 0.0, 0.0]
effort: [-53.80000305175781, 75.31999969482422, 96.84000396728516, 43.040000915527344]
---
header: 
  seq: 5128
  stamp: 
    secs: 1701739948
    nsecs: 866745860
  frame_id: ''
name: 
  - joint_1
  - joint_2
  - joint_3
  - joint_4
position: [-0.4555923044681549, -1.4005244970321655, -0.2684466540813446, -0.928058385848999]
velocity: [0.0, 0.0, 0.0, 0.0]
effort: [-53.80000305175781, 75.31999969482422, 94.1500015258789, 43.040000915527344]
---
header: 
  seq: 5129
  stamp: 
    secs: 1701739948
    nsecs: 898762941
  frame_id: ''
name: 
  - joint_1
  - joint_2
  - joint_3
  - joint_4
position: [-0.4555923044681549, -1.4005244970321655, -0.2684466540813446, -0.928058385848999]
velocity: [0.0, 0.0, 0.0, 0.0]
effort: [-53.80000305175781, 69.94000244140625, 96.84000396728516, 43.040000915527344]
---
header: 
  seq: 5130
  stamp: 
    secs: 1701739948
    nsecs: 930656524
  frame_id: ''
name: 
  - joint_1
  - joint_2
  - joint_3
  - joint_4
position: [-0.4555923044681549, -1.4005244970321655, -0.2684466540813446, -0.928058385848999]
velocity: [0.0, 0.0, 0.0, 0.0]
effort: [-53.80000305175781, 75.31999969482422, 94.1500015258789, 43.040000915527344]
---
header: 
  seq: 5131
  stamp: 
    secs: 1701739948
    nsecs: 962692200
  frame_id: ''
name: 
  - joint_1
  - joint_2
  - joint_3
  - joint_4
position: [-0.4555923044681549, -1.4005244970321655, -0.2684466540813446, -0.928058385848999]
velocity: [0.0, 0.0, 0.0, 0.0]
effort: [-53.80000305175781, 75.31999969482422, 96.84000396728516, 43.040000915527344]
---
header: 
  seq: 5132
  stamp: 
    secs: 1701739948
    nsecs: 994692279
  frame_id: ''
name: 
  - joint_1
  - joint_2
  - joint_3
  - joint_4
position: [-0.4555923044681549, -1.4005244970321655, -0.2684466540813446, -0.928058385848999]
velocity: [0.0, 0.0, 0.0, 0.0]
effort: [-53.80000305175781, 72.6300048828125, 96.84000396728516, 43.040000915527344]
---
header: 
  seq: 5133
  stamp: 
    secs: 1701739949
    nsecs:  26744063
  frame_id: ''
name: 
  - joint_1
  - joint_2
  - joint_3
  - joint_4
position: [-0.4555923044681549, -1.4005244970321655, -0.2684466540813446, -0.928058385848999]
velocity: [0.0, 0.0, 0.0, 0.0]
effort: [-53.80000305175781, 75.31999969482422, 94.1500015258789, 43.040000915527344]
---
header: 
  seq: 5134
  stamp: 
    secs: 1701739949
    nsecs:  58746846
  frame_id: ''
name: 
  - joint_1
  - joint_2
  - joint_3
  - joint_4
position: [-0.4555923044681549, -1.4005244970321655, -0.2684466540813446, -0.928058385848999]
velocity: [0.0, 0.0, 0.0, 0.0]
effort: [-53.80000305175781, 75.31999969482422, 94.1500015258789, 43.040000915527344]
---
header: 
  seq: 5135
  stamp: 
    secs: 1701739949
    nsecs:  90790012
  frame_id: ''
name: 
  - joint_1
  - joint_2
  - joint_3
  - joint_4
position: [-0.45712628960609436, -1.4005244970321655, -0.2684466540813446, -0.928058385848999]
velocity: [0.0, 0.0, 0.0, 0.0]
effort: [-53.80000305175781, 72.6300048828125, 94.1500015258789, 43.040000915527344]
---
header: 
  seq: 5136
  stamp: 
    secs: 1701739949
    nsecs: 122706505
  frame_id: ''
name: 
  - joint_1
  - joint_2
  - joint_3
  - joint_4
position: [-0.45712628960609436, -1.4005244970321655, -0.2684466540813446, -0.928058385848999]
velocity: [0.0, 0.0, 0.0, 0.0]
effort: [-53.80000305175781, 78.01000213623047, 94.1500015258789, 43.040000915527344]
---
header: 
  seq: 5137
  stamp: 
    secs: 1701739949
    nsecs: 154671230
  frame_id: ''
name: 
  - joint_1
  - joint_2
  - joint_3
  - joint_4
position: [-0.4555923044681549, -1.4005244970321655, -0.2684466540813446, -0.928058385848999]
velocity: [0.0, 0.0, 0.0, 0.0]
effort: [-53.80000305175781, 75.31999969482422, 94.1500015258789, 43.040000915527344]
---
header: 
  seq: 5138
  stamp: 
    secs: 1701739949
    nsecs: 186681836
  frame_id: ''
name: 
  - joint_1
  - joint_2
  - joint_3
  - joint_4
position: [-0.45712628960609436, -1.4005244970321655, -0.2684466540813446, -0.928058385848999]
velocity: [0.0, 0.0, 0.0, 0.0]
effort: [-53.80000305175781, 75.31999969482422, 94.1500015258789, 43.040000915527344]
---
header: 
  seq: 5139
  stamp: 
    secs: 1701739949
    nsecs: 218699658
  frame_id: ''
name: 
  - joint_1
  - joint_2
  - joint_3
  - joint_4
position: [-0.4555923044681549, -1.4005244970321655, -0.2684466540813446, -0.928058385848999]
velocity: [0.0, 0.0, 0.0, 0.0]
effort: [-56.4900016784668, 75.31999969482422, 96.84000396728516, 43.040000915527344]
---
header: 
  seq: 5140
  stamp: 
    secs: 1701739949
    nsecs: 250737360
  frame_id: ''
name: 
  - joint_1
  - joint_2
  - joint_3
  - joint_4
position: [-0.45712628960609436, -1.4005244970321655, -0.2684466540813446, -0.928058385848999]
velocity: [0.0, 0.0, 0.0, 0.0]
effort: [-56.4900016784668, 75.31999969482422, 96.84000396728516, 43.040000915527344]
---
header: 
  seq: 5141
  stamp: 
    secs: 1701739949
    nsecs: 282940208
  frame_id: ''
name: 
  - joint_1
  - joint_2
  - joint_3
  - joint_4
position: [-0.4555923044681549, -1.4005244970321655, -0.2684466540813446, -0.928058385848999]
velocity: [0.0, 0.0, 0.0, 0.0]
effort: [-56.4900016784668, 75.31999969482422, 94.1500015258789, 43.040000915527344]
---
header: 
  seq: 5142
  stamp: 
    secs: 1701739949
    nsecs: 314701167
  frame_id: ''
name: 
  - joint_1
  - joint_2
  - joint_3
  - joint_4
position: [-0.45712628960609436, -1.4005244970321655, -0.2684466540813446, -0.928058385848999]
velocity: [0.0, 0.0, 0.0, 0.0]
effort: [-56.4900016784668, 78.01000213623047, 94.1500015258789, 43.040000915527344]
---
header: 
  seq: 5143
  stamp: 
    secs: 1701739949
    nsecs: 346612880
  frame_id: ''
name: 
  - joint_1
  - joint_2
  - joint_3
  - joint_4
position: [-0.45712628960609436, -1.4005244970321655, -0.2684466540813446, -0.928058385848999]
velocity: [0.0, 0.0, 0.0, 0.0]
effort: [-56.4900016784668, 75.31999969482422, 94.1500015258789, 43.040000915527344]
---
header: 
  seq: 5144
  stamp: 
    secs: 1701739949
    nsecs: 378666121
  frame_id: ''
name: 
  - joint_1
  - joint_2
  - joint_3
  - joint_4
position: [-0.4555923044681549, -1.4005244970321655, -0.2684466540813446, -0.928058385848999]
velocity: [0.0, 0.0, 0.0, 0.0]
effort: [-56.4900016784668, 72.6300048828125, 96.84000396728516, 43.040000915527344]
---
header: 
  seq: 5145
  stamp: 
    secs: 1701739949
    nsecs: 410681850
  frame_id: ''
name: 
  - joint_1
  - joint_2
  - joint_3
  - joint_4
position: [-0.4555923044681549, -1.4005244970321655, -0.2684466540813446, -0.928058385848999]
velocity: [0.0, 0.0, 0.0, 0.0]
effort: [-56.4900016784668, 75.31999969482422, 96.84000396728516, 43.040000915527344]
---
header: 
  seq: 5146
  stamp: 
    secs: 1701739949
    nsecs: 442704700
  frame_id: ''
name: 
  - joint_1
  - joint_2
  - joint_3
  - joint_4
position: [-0.45712628960609436, -1.4005244970321655, -0.2684466540813446, -0.9295923709869385]
velocity: [0.0, 0.0, 0.0, 0.0]
effort: [-56.4900016784668, 75.31999969482422, 94.1500015258789, 43.040000915527344]
---
header: 
  seq: 5147
  stamp: 
    secs: 1701739949
    nsecs: 474758298
  frame_id: ''
name: 
  - joint_1
  - joint_2
  - joint_3
  - joint_4
position: [-0.45712628960609436, -1.4005244970321655, -0.2684466540813446, -0.928058385848999]
velocity: [0.0, 0.0, 0.0, 0.0]
effort: [-59.18000030517578, 75.31999969482422, 96.84000396728516, 43.040000915527344]
---
header: 
  seq: 5148
  stamp: 
    secs: 1701739949
    nsecs: 506647540
  frame_id: ''
name: 
  - joint_1
  - joint_2
  - joint_3
  - joint_4
position: [-0.45712628960609436, -1.4005244970321655, -0.2684466540813446, -0.928058385848999]
velocity: [0.0, 0.0, 0.0, 0.0]
effort: [-59.18000030517578, 75.31999969482422, 91.45999908447266, 43.040000915527344]
---
header: 
  seq: 5149
  stamp: 
    secs: 1701739949
    nsecs: 538650819
  frame_id: ''
name: 
  - joint_1
  - joint_2
  - joint_3
  - joint_4
position: [-0.45712628960609436, -1.4005244970321655, -0.2684466540813446, -0.928058385848999]
velocity: [0.0, 0.0, 0.0, 0.0]
effort: [-59.18000030517578, 75.31999969482422, 94.1500015258789, 43.040000915527344]
---
header: 
  seq: 5150
  stamp: 
    secs: 1701739949
    nsecs: 570663195
  frame_id: ''
name: 
  - joint_1
  - joint_2
  - joint_3
  - joint_4
position: [-0.45712628960609436, -1.4005244970321655, -0.2684466540813446, -0.928058385848999]
velocity: [0.0, 0.0, 0.0, 0.0]
effort: [-59.18000030517578, 75.31999969482422, 96.84000396728516, 43.040000915527344]
---
header: 
  seq: 5151
  stamp: 
    secs: 1701739949
    nsecs: 602672809
  frame_id: ''
name: 
  - joint_1
  - joint_2
  - joint_3
  - joint_4
position: [-0.45712628960609436, -1.4005244970321655, -0.2684466540813446, -0.928058385848999]
velocity: [0.0, 0.0, 0.0, 0.0]
effort: [-59.18000030517578, 75.31999969482422, 94.1500015258789, 43.040000915527344]
---
header: 
  seq: 5152
  stamp: 
    secs: 1701739949
    nsecs: 634673712
  frame_id: ''
name: 
  - joint_1
  - joint_2
  - joint_3
  - joint_4
position: [-0.45712628960609436, -1.4005244970321655, -0.2684466540813446, -0.928058385848999]
velocity: [0.0, 0.0, 0.0, 0.0]
effort: [-59.18000030517578, 75.31999969482422, 94.1500015258789, 43.040000915527344]
---
header: 
  seq: 5153
  stamp: 
    secs: 1701739949
    nsecs: 666704207
  frame_id: ''
name: 
  - joint_1
  - joint_2
  - joint_3
  - joint_4
position: [-0.45712628960609436, -1.4005244970321655, -0.2684466540813446, -0.928058385848999]
velocity: [0.0, 0.0, 0.0, 0.0]
effort: [-59.18000030517578, 75.31999969482422, 96.84000396728516, 43.040000915527344]
---
header: 
  seq: 5154
  stamp: 
    secs: 1701739949
    nsecs: 698761355
  frame_id: ''
name: 
  - joint_1
  - joint_2
  - joint_3
  - joint_4
position: [-0.45712628960609436, -1.4005244970321655, -0.2684466540813446, -0.928058385848999]
velocity: [0.0, 0.0, 0.0, 0.0]
effort: [-59.18000030517578, 75.31999969482422, 96.84000396728516, 43.040000915527344]
---
header: 
  seq: 5155
  stamp: 
    secs: 1701739949
    nsecs: 730614009
  frame_id: ''
name: 
  - joint_1
  - joint_2
  - joint_3
  - joint_4
position: [-0.45712628960609436, -1.4005244970321655, -0.2684466540813446, -0.928058385848999]
velocity: [0.0, 0.0, 0.0, 0.0]
effort: [-59.18000030517578, 75.31999969482422, 94.1500015258789, 43.040000915527344]
---
header: 
  seq: 5156
  stamp: 
    secs: 1701739949
    nsecs: 762645759
  frame_id: ''
name: 
  - joint_1
  - joint_2
  - joint_3
  - joint_4
position: [-0.45712628960609436, -1.4005244970321655, -0.2684466540813446, -0.928058385848999]
velocity: [0.0, 0.0, 0.0, 0.0]
effort: [-59.18000030517578, 72.6300048828125, 96.84000396728516, 43.040000915527344]
---
header: 
  seq: 5157
  stamp: 
    secs: 1701739949
    nsecs: 794638691
  frame_id: ''
name: 
  - joint_1
  - joint_2
  - joint_3
  - joint_4
position: [-0.45712628960609436, -1.4005244970321655, -0.2684466540813446, -0.928058385848999]
velocity: [0.0, 0.0, 0.0, 0.0]
effort: [-59.18000030517578, 75.31999969482422, 94.1500015258789, 43.040000915527344]
---
header: 
  seq: 5158
  stamp: 
    secs: 1701739949
    nsecs: 826718384
  frame_id: ''
name: 
  - joint_1
  - joint_2
  - joint_3
  - joint_4
position: [-0.45712628960609436, -1.4005244970321655, -0.2684466540813446, -0.928058385848999]
velocity: [0.0, 0.0, 0.0, 0.0]
effort: [-59.18000030517578, 75.31999969482422, 96.84000396728516, 43.040000915527344]
---
header: 
  seq: 5159
  stamp: 
    secs: 1701739949
    nsecs: 858704685
  frame_id: ''
name: 
  - joint_1
  - joint_2
  - joint_3
  - joint_4
position: [-0.45712628960609436, -1.4005244970321655, -0.2684466540813446, -0.928058385848999]
velocity: [0.0, 0.0, 0.0, 0.0]
effort: [-59.18000030517578, 75.31999969482422, 94.1500015258789, 43.040000915527344]
---
header: 
  seq: 5160
  stamp: 
    secs: 1701739949
    nsecs: 890766367
  frame_id: ''
name: 
  - joint_1
  - joint_2
  - joint_3
  - joint_4
position: [-0.45712628960609436, -1.4005244970321655, -0.2684466540813446, -0.928058385848999]
velocity: [0.0, 0.0, 0.0, 0.0]
effort: [-59.18000030517578, 75.31999969482422, 94.1500015258789, 43.040000915527344]
---
header: 
  seq: 5161
  stamp: 
    secs: 1701739949
    nsecs: 922618634
  frame_id: ''
name: 
  - joint_1
  - joint_2
  - joint_3
  - joint_4
position: [-0.45712628960609436, -1.4005244970321655, -0.2684466540813446, -0.928058385848999]
velocity: [0.0, 0.0, 0.0, 0.0]
effort: [-59.18000030517578, 72.6300048828125, 94.1500015258789, 43.040000915527344]
---
header: 
  seq: 5162
  stamp: 
    secs: 1701739949
    nsecs: 954647455
  frame_id: ''
name: 
  - joint_1
  - joint_2
  - joint_3
  - joint_4
position: [-0.45712628960609436, -1.4005244970321655, -0.2684466540813446, -0.928058385848999]
velocity: [0.0, 0.0, 0.0, 0.0]
effort: [-59.18000030517578, 75.31999969482422, 94.1500015258789, 43.040000915527344]
---
header: 
  seq: 5163
  stamp: 
    secs: 1701739949
    nsecs: 986599611
  frame_id: ''
name: 
  - joint_1
  - joint_2
  - joint_3
  - joint_4
position: [-0.45712628960609436, -1.4005244970321655, -0.2684466540813446, -0.928058385848999]
velocity: [0.0, 0.0, 0.0, 0.0]
effort: [-59.18000030517578, 75.31999969482422, 96.84000396728516, 43.040000915527344]
---
header: 
  seq: 5164
  stamp: 
    secs: 1701739950
    nsecs:  18626762
  frame_id: ''
name: 
  - joint_1
  - joint_2
  - joint_3
  - joint_4
position: [-0.45712628960609436, -1.4005244970321655, -0.2684466540813446, -0.928058385848999]
velocity: [0.0, 0.0, 0.0, 0.0]
effort: [-59.18000030517578, 75.31999969482422, 94.1500015258789, 43.040000915527344]
---
header: 
  seq: 5165
  stamp: 
    secs: 1701739950
    nsecs:  50670090
  frame_id: ''
name: 
  - joint_1
  - joint_2
  - joint_3
  - joint_4
position: [-0.45712628960609436, -1.4005244970321655, -0.2684466540813446, -0.928058385848999]
velocity: [0.0, 0.0, 0.0, 0.0]
effort: [-59.18000030517578, 78.01000213623047, 94.1500015258789, 43.040000915527344]
---
header: 
  seq: 5166
  stamp: 
    secs: 1701739950
    nsecs:  82854807
  frame_id: ''
name: 
  - joint_1
  - joint_2
  - joint_3
  - joint_4
position: [-0.45712628960609436, -1.4005244970321655, -0.2684466540813446, -0.928058385848999]
velocity: [0.0, 0.0, 0.0, 0.0]
effort: [-59.18000030517578, 78.01000213623047, 94.1500015258789, 43.040000915527344]
---
header: 
  seq: 5167
  stamp: 
    secs: 1701739950
    nsecs: 114630618
  frame_id: ''
name: 
  - joint_1
  - joint_2
  - joint_3
  - joint_4
position: [-0.45712628960609436, -1.4005244970321655, -0.2684466540813446, -0.928058385848999]
velocity: [0.0, 0.0, 0.0, 0.0]
effort: [-59.18000030517578, 75.31999969482422, 96.84000396728516, 43.040000915527344]
---
header: 
  seq: 5168
  stamp: 
    secs: 1701739950
    nsecs: 146620574
  frame_id: ''
name: 
  - joint_1
  - joint_2
  - joint_3
  - joint_4
position: [-0.45712628960609436, -1.4005244970321655, -0.2684466540813446, -0.928058385848999]
velocity: [0.0, 0.0, 0.0, 0.0]
effort: [-59.18000030517578, 75.31999969482422, 94.1500015258789, 43.040000915527344]
---
header: 
  seq: 5169
  stamp: 
    secs: 1701739950
    nsecs: 178619770
  frame_id: ''
name: 
  - joint_1
  - joint_2
  - joint_3
  - joint_4
position: [-0.45712628960609436, -1.4005244970321655, -0.2684466540813446, -0.928058385848999]
velocity: [0.0, 0.0, 0.0, 0.0]
effort: [-59.18000030517578, 78.01000213623047, 94.1500015258789, 43.040000915527344]
---
header: 
  seq: 5170
  stamp: 
    secs: 1701739950
    nsecs: 210633034
  frame_id: ''
name: 
  - joint_1
  - joint_2
  - joint_3
  - joint_4
position: [-0.4586602747440338, -1.4005244970321655, -0.2684466540813446, -0.928058385848999]
velocity: [0.0, 0.0, 0.0, 0.0]
effort: [-59.18000030517578, 72.6300048828125, 96.84000396728516, 43.040000915527344]
---
header: 
  seq: 5171
  stamp: 
    secs: 1701739950
    nsecs: 242654653
  frame_id: ''
name: 
  - joint_1
  - joint_2
  - joint_3
  - joint_4
position: [-0.45712628960609436, -1.4005244970321655, -0.2684466540813446, -0.928058385848999]
velocity: [0.0, 0.0, 0.0, 0.0]
effort: [-59.18000030517578, 75.31999969482422, 94.1500015258789, 43.040000915527344]
---
header: 
  seq: 5172
  stamp: 
    secs: 1701739950
    nsecs: 274719447
  frame_id: ''
name: 
  - joint_1
  - joint_2
  - joint_3
  - joint_4
position: [-0.4586602747440338, -1.4005244970321655, -0.2684466540813446, -0.928058385848999]
velocity: [0.0, 0.0, 0.0, 0.0]
effort: [-59.18000030517578, 75.31999969482422, 94.1500015258789, 43.040000915527344]
---
header: 
  seq: 5173
  stamp: 
    secs: 1701739950
    nsecs: 306739211
  frame_id: ''
name: 
  - joint_1
  - joint_2
  - joint_3
  - joint_4
position: [-0.4586602747440338, -1.4005244970321655, -0.2684466540813446, -0.928058385848999]
velocity: [0.0, 0.0, 0.0, 0.0]
effort: [-59.18000030517578, 75.31999969482422, 94.1500015258789, 43.040000915527344]
---
header: 
  seq: 5174
  stamp: 
    secs: 1701739950
    nsecs: 338598734
  frame_id: ''
name: 
  - joint_1
  - joint_2
  - joint_3
  - joint_4
position: [-0.4586602747440338, -1.4005244970321655, -0.2684466540813446, -0.928058385848999]
velocity: [0.0, 0.0, 0.0, 0.0]
effort: [-59.18000030517578, 75.31999969482422, 96.84000396728516, 43.040000915527344]
---
header: 
  seq: 5175
  stamp: 
    secs: 1701739950
    nsecs: 370647318
  frame_id: ''
name: 
  - joint_1
  - joint_2
  - joint_3
  - joint_4
position: [-0.4586602747440338, -1.4005244970321655, -0.2684466540813446, -0.928058385848999]
velocity: [0.0, 0.0, 0.0, 0.0]
effort: [-59.18000030517578, 78.01000213623047, 94.1500015258789, 43.040000915527344]
---
header: 
  seq: 5176
  stamp: 
    secs: 1701739950
    nsecs: 402617796
  frame_id: ''
name: 
  - joint_1
  - joint_2
  - joint_3
  - joint_4
position: [-0.4586602747440338, -1.4005244970321655, -0.2684466540813446, -0.928058385848999]
velocity: [0.0, 0.0, 0.0, 0.0]
effort: [-59.18000030517578, 75.31999969482422, 96.84000396728516, 43.040000915527344]
---
header: 
  seq: 5177
  stamp: 
    secs: 1701739950
    nsecs: 434667278
  frame_id: ''
name: 
  - joint_1
  - joint_2
  - joint_3
  - joint_4
position: [-0.4586602747440338, -1.4005244970321655, -0.2684466540813446, -0.928058385848999]
velocity: [0.0, 0.0, 0.0, 0.0]
effort: [-59.18000030517578, 75.31999969482422, 96.84000396728516, 43.040000915527344]
---
header: 
  seq: 5178
  stamp: 
    secs: 1701739950
    nsecs: 466715272
  frame_id: ''
name: 
  - joint_1
  - joint_2
  - joint_3
  - joint_4
position: [-0.4586602747440338, -1.4005244970321655, -0.2684466540813446, -0.928058385848999]
velocity: [0.0, 0.0, 0.0, 0.0]
effort: [-59.18000030517578, 78.01000213623047, 94.1500015258789, 43.040000915527344]
---
header: 
  seq: 5179
  stamp: 
    secs: 1701739950
    nsecs: 498665780
  frame_id: ''
name: 
  - joint_1
  - joint_2
  - joint_3
  - joint_4
position: [-0.4586602747440338, -1.4005244970321655, -0.2684466540813446, -0.928058385848999]
velocity: [0.0, 0.0, 0.0, 0.0]
effort: [-59.18000030517578, 75.31999969482422, 96.84000396728516, 43.040000915527344]
---
header: 
  seq: 5180
  stamp: 
    secs: 1701739950
    nsecs: 530606122
  frame_id: ''
name: 
  - joint_1
  - joint_2
  - joint_3
  - joint_4
position: [-0.4586602747440338, -1.4005244970321655, -0.2684466540813446, -0.928058385848999]
velocity: [0.0, 0.0, 0.0, 0.0]
effort: [-59.18000030517578, 75.31999969482422, 94.1500015258789, 43.040000915527344]
---
header: 
  seq: 5181
  stamp: 
    secs: 1701739950
    nsecs: 562599578
  frame_id: ''
name: 
  - joint_1
  - joint_2
  - joint_3
  - joint_4
position: [-0.4586602747440338, -1.4005244970321655, -0.2684466540813446, -0.928058385848999]
velocity: [0.0, 0.0, 0.0, 0.0]
effort: [-59.18000030517578, 75.31999969482422, 94.1500015258789, 43.040000915527344]
---
header: 
  seq: 5182
  stamp: 
    secs: 1701739950
    nsecs: 594611684
  frame_id: ''
name: 
  - joint_1
  - joint_2
  - joint_3
  - joint_4
position: [-0.4586602747440338, -1.4005244970321655, -0.2684466540813446, -0.928058385848999]
velocity: [0.0, 0.0, 0.0, 0.0]
effort: [-59.18000030517578, 75.31999969482422, 94.1500015258789, 43.040000915527344]
---
header: 
  seq: 5183
  stamp: 
    secs: 1701739950
    nsecs: 626700501
  frame_id: ''
name: 
  - joint_1
  - joint_2
  - joint_3
  - joint_4
position: [-0.4586602747440338, -1.4005244970321655, -0.2684466540813446, -0.928058385848999]
velocity: [0.0, 0.0, 0.0, 0.0]
effort: [-59.18000030517578, 75.31999969482422, 96.84000396728516, 43.040000915527344]
---
header: 
  seq: 5184
  stamp: 
    secs: 1701739950
    nsecs: 658700804
  frame_id: ''
name: 
  - joint_1
  - joint_2
  - joint_3
  - joint_4
position: [-0.46019425988197327, -1.4005244970321655, -0.2684466540813446, -0.928058385848999]
velocity: [0.0, 0.0, 0.0, 0.0]
effort: [-59.18000030517578, 75.31999969482422, 94.1500015258789, 43.040000915527344]
---
header: 
  seq: 5185
  stamp: 
    secs: 1701739950
    nsecs: 690653470
  frame_id: ''
name: 
  - joint_1
  - joint_2
  - joint_3
  - joint_4
position: [-0.46019425988197327, -1.4005244970321655, -0.2684466540813446, -0.928058385848999]
velocity: [0.0, 0.0, 0.0, 0.0]
effort: [-59.18000030517578, 78.01000213623047, 96.84000396728516, 43.040000915527344]
---
header: 
  seq: 5186
  stamp: 
    secs: 1701739950
    nsecs: 722644196
  frame_id: ''
name: 
  - joint_1
  - joint_2
  - joint_3
  - joint_4
position: [-0.46019425988197327, -1.4005244970321655, -0.2684466540813446, -0.928058385848999]
velocity: [0.0, 0.0, 0.0, 0.0]
effort: [-59.18000030517578, 72.6300048828125, 94.1500015258789, 43.040000915527344]
---
header: 
  seq: 5187
  stamp: 
    secs: 1701739950
    nsecs: 754575893
  frame_id: ''
name: 
  - joint_1
  - joint_2
  - joint_3
  - joint_4
position: [-0.46019425988197327, -1.4005244970321655, -0.2684466540813446, -0.928058385848999]
velocity: [0.0, 0.0, 0.0, 0.0]
effort: [-59.18000030517578, 75.31999969482422, 94.1500015258789, 43.040000915527344]
---
header: 
  seq: 5188
  stamp: 
    secs: 1701739950
    nsecs: 786566848
  frame_id: ''
name: 
  - joint_1
  - joint_2
  - joint_3
  - joint_4
position: [-0.46019425988197327, -1.4005244970321655, -0.2684466540813446, -0.928058385848999]
velocity: [0.0, 0.0, 0.0, 0.0]
effort: [-59.18000030517578, 75.31999969482422, 94.1500015258789, 43.040000915527344]
---
header: 
  seq: 5189
  stamp: 
    secs: 1701739950
    nsecs: 818551881
  frame_id: ''
name: 
  - joint_1
  - joint_2
  - joint_3
  - joint_4
position: [-0.46019425988197327, -1.4005244970321655, -0.2684466540813446, -0.928058385848999]
velocity: [0.0, 0.0, 0.0, 0.0]
effort: [-59.18000030517578, 75.31999969482422, 94.1500015258789, 43.040000915527344]
---
header: 
  seq: 5190
  stamp: 
    secs: 1701739950
    nsecs: 850602194
  frame_id: ''
name: 
  - joint_1
  - joint_2
  - joint_3
  - joint_4
position: [-0.46019425988197327, -1.4005244970321655, -0.2684466540813446, -0.928058385848999]
velocity: [0.0, 0.0, 0.0, 0.0]
effort: [-59.18000030517578, 72.6300048828125, 94.1500015258789, 43.040000915527344]
---
header: 
  seq: 5191
  stamp: 
    secs: 1701739950
    nsecs: 882838785
  frame_id: ''
name: 
  - joint_1
  - joint_2
  - joint_3
  - joint_4
position: [-0.46019425988197327, -1.4005244970321655, -0.2684466540813446, -0.928058385848999]
velocity: [0.0, 0.0, 0.0, 0.0]
effort: [-59.18000030517578, 78.01000213623047, 96.84000396728516, 43.040000915527344]
---
header: 
  seq: 5192
  stamp: 
    secs: 1701739950
    nsecs: 914622214
  frame_id: ''
name: 
  - joint_1
  - joint_2
  - joint_3
  - joint_4
position: [-0.46019425988197327, -1.4005244970321655, -0.2684466540813446, -0.928058385848999]
velocity: [0.0, 0.0, 0.0, 0.0]
effort: [-59.18000030517578, 75.31999969482422, 94.1500015258789, 43.040000915527344]
---
header: 
  seq: 5193
  stamp: 
    secs: 1701739950
    nsecs: 946539128
  frame_id: ''
name: 
  - joint_1
  - joint_2
  - joint_3
  - joint_4
position: [-0.46019425988197327, -1.4005244970321655, -0.2684466540813446, -0.928058385848999]
velocity: [0.0, 0.0, 0.0, 0.0]
effort: [-59.18000030517578, 78.01000213623047, 94.1500015258789, 43.040000915527344]
---
header: 
  seq: 5194
  stamp: 
    secs: 1701739950
    nsecs: 978566471
  frame_id: ''
name: 
  - joint_1
  - joint_2
  - joint_3
  - joint_4
position: [-0.46019425988197327, -1.4005244970321655, -0.2684466540813446, -0.928058385848999]
velocity: [0.0, 0.0, 0.0, 0.0]
effort: [-59.18000030517578, 75.31999969482422, 96.84000396728516, 43.040000915527344]
---
header: 
  seq: 5195
  stamp: 
    secs: 1701739951
    nsecs:  10577000
  frame_id: ''
name: 
  - joint_1
  - joint_2
  - joint_3
  - joint_4
position: [-0.46019425988197327, -1.4005244970321655, -0.2684466540813446, -0.928058385848999]
velocity: [0.0, 0.0, 0.0, 0.0]
effort: [-59.18000030517578, 75.31999969482422, 94.1500015258789, 43.040000915527344]
---
header: 
  seq: 5196
  stamp: 
    secs: 1701739951
    nsecs:  42613206
  frame_id: ''
name: 
  - joint_1
  - joint_2
  - joint_3
  - joint_4
position: [-0.46019425988197327, -1.4005244970321655, -0.2684466540813446, -0.928058385848999]
velocity: [0.0, 0.0, 0.0, 0.0]
effort: [-59.18000030517578, 72.6300048828125, 94.1500015258789, 43.040000915527344]
---
header: 
  seq: 5197
  stamp: 
    secs: 1701739951
    nsecs:  74686358
  frame_id: ''
name: 
  - joint_1
  - joint_2
  - joint_3
  - joint_4
position: [-0.46019425988197327, -1.4005244970321655, -0.2684466540813446, -0.928058385848999]
velocity: [0.0, 0.0, 0.0, 0.0]
effort: [-59.18000030517578, 75.31999969482422, 96.84000396728516, 43.040000915527344]
---
header: 
  seq: 5198
  stamp: 
    secs: 1701739951
    nsecs: 106646471
  frame_id: ''
name: 
  - joint_1
  - joint_2
  - joint_3
  - joint_4
position: [-0.46019425988197327, -1.4005244970321655, -0.2684466540813446, -0.928058385848999]
velocity: [0.0, 0.0, 0.0, 0.0]
effort: [-59.18000030517578, 75.31999969482422, 94.1500015258789, 43.040000915527344]
---
header: 
  seq: 5199
  stamp: 
    secs: 1701739951
    nsecs: 138553509
  frame_id: ''
name: 
  - joint_1
  - joint_2
  - joint_3
  - joint_4
position: [-0.46172821521759033, -1.4005244970321655, -0.2684466540813446, -0.928058385848999]
velocity: [0.0, 0.0, 0.0, 0.0]
effort: [-59.18000030517578, 72.6300048828125, 96.84000396728516, 43.040000915527344]
---
header: 
  seq: 5200
  stamp: 
    secs: 1701739951
    nsecs: 170562360
  frame_id: ''
name: 
  - joint_1
  - joint_2
  - joint_3
  - joint_4
position: [-0.46172821521759033, -1.4005244970321655, -0.2684466540813446, -0.928058385848999]
velocity: [0.0, 0.0, 0.0, 0.0]
effort: [-59.18000030517578, 75.31999969482422, 96.84000396728516, 43.040000915527344]
---
header: 
  seq: 5201
  stamp: 
    secs: 1701739951
    nsecs: 202565793
  frame_id: ''
name: 
  - joint_1
  - joint_2
  - joint_3
  - joint_4
position: [-0.46172821521759033, -1.402058482170105, -0.2684466540813446, -0.928058385848999]
velocity: [0.0, 0.0, 0.0, 0.0]
effort: [-59.18000030517578, 75.31999969482422, 96.84000396728516, 43.040000915527344]
---
header: 
  seq: 5202
  stamp: 
    secs: 1701739951
    nsecs: 234605593
  frame_id: ''
name: 
  - joint_1
  - joint_2
  - joint_3
  - joint_4
position: [-0.46172821521759033, -1.4005244970321655, -0.2684466540813446, -0.928058385848999]
velocity: [0.0, 0.0, 0.0, 0.0]
effort: [-59.18000030517578, 78.01000213623047, 96.84000396728516, 43.040000915527344]
---
header: 
  seq: 5203
  stamp: 
    secs: 1701739951
    nsecs: 266663013
  frame_id: ''
name: 
  - joint_1
  - joint_2
  - joint_3
  - joint_4
position: [-0.46172821521759033, -1.4005244970321655, -0.2684466540813446, -0.928058385848999]
velocity: [0.0, 0.0, 0.0, 0.0]
effort: [-59.18000030517578, 72.6300048828125, 94.1500015258789, 43.040000915527344]
---
header: 
  seq: 5204
  stamp: 
    secs: 1701739951
    nsecs: 298646389
  frame_id: ''
name: 
  - joint_1
  - joint_2
  - joint_3
  - joint_4
position: [-0.46172821521759033, -1.4005244970321655, -0.2684466540813446, -0.928058385848999]
velocity: [0.0, 0.0, 0.0, 0.0]
effort: [-59.18000030517578, 75.31999969482422, 94.1500015258789, 43.040000915527344]
---
header: 
  seq: 5205
  stamp: 
    secs: 1701739951
    nsecs: 330568493
  frame_id: ''
name: 
  - joint_1
  - joint_2
  - joint_3
  - joint_4
position: [-0.46172821521759033, -1.4005244970321655, -0.2684466540813446, -0.928058385848999]
velocity: [0.0, 0.0, 0.0, 0.0]
effort: [-59.18000030517578, 75.31999969482422, 94.1500015258789, 43.040000915527344]
---
header: 
  seq: 5206
  stamp: 
    secs: 1701739951
    nsecs: 362512714
  frame_id: ''
name: 
  - joint_1
  - joint_2
  - joint_3
  - joint_4
position: [-0.46172821521759033, -1.4005244970321655, -0.2684466540813446, -0.928058385848999]
velocity: [0.0, 0.0, 0.0, 0.0]
effort: [-59.18000030517578, 75.31999969482422, 94.1500015258789, 43.040000915527344]
---
header: 
  seq: 5207
  stamp: 
    secs: 1701739951
    nsecs: 394565343
  frame_id: ''
name: 
  - joint_1
  - joint_2
  - joint_3
  - joint_4
position: [-0.46172821521759033, -1.4005244970321655, -0.2684466540813446, -0.928058385848999]
velocity: [0.0, 0.0, 0.0, 0.0]
effort: [-59.18000030517578, 75.31999969482422, 94.1500015258789, 43.040000915527344]
---
header: 
  seq: 5208
  stamp: 
    secs: 1701739951
    nsecs: 426626979
  frame_id: ''
name: 
  - joint_1
  - joint_2
  - joint_3
  - joint_4
position: [-0.46172821521759033, -1.4005244970321655, -0.2684466540813446, -0.928058385848999]
velocity: [0.0, 0.0, 0.0, 0.0]
effort: [-59.18000030517578, 72.6300048828125, 94.1500015258789, 43.040000915527344]
---
header: 
  seq: 5209
  stamp: 
    secs: 1701739951
    nsecs: 458638966
  frame_id: ''
name: 
  - joint_1
  - joint_2
  - joint_3
  - joint_4
position: [-0.46172821521759033, -1.4005244970321655, -0.2684466540813446, -0.928058385848999]
velocity: [0.0, 0.0, 0.0, 0.0]
effort: [-59.18000030517578, 72.6300048828125, 99.52999877929688, 43.040000915527344]
---
header: 
  seq: 5210
  stamp: 
    secs: 1701739951
    nsecs: 490708616
  frame_id: ''
name: 
  - joint_1
  - joint_2
  - joint_3
  - joint_4
position: [-0.4632622003555298, -1.4005244970321655, -0.2684466540813446, -0.928058385848999]
velocity: [0.0, 0.0, 0.0, 0.0]
effort: [-59.18000030517578, 72.6300048828125, 94.1500015258789, 43.040000915527344]
---
header: 
  seq: 5211
  stamp: 
    secs: 1701739951
    nsecs: 522559512
  frame_id: ''
name: 
  - joint_1
  - joint_2
  - joint_3
  - joint_4
position: [-0.46172821521759033, -1.4005244970321655, -0.2684466540813446, -0.928058385848999]
velocity: [0.0, 0.0, 0.0, 0.0]
effort: [-59.18000030517578, 75.31999969482422, 91.45999908447266, 43.040000915527344]
---
header: 
  seq: 5212
  stamp: 
    secs: 1701739951
    nsecs: 554550018
  frame_id: ''
name: 
  - joint_1
  - joint_2
  - joint_3
  - joint_4
position: [-0.46172821521759033, -1.4005244970321655, -0.2684466540813446, -0.928058385848999]
velocity: [0.0, 0.0, 0.0, 0.0]
effort: [-59.18000030517578, 69.94000244140625, 94.1500015258789, 43.040000915527344]
---
header: 
  seq: 5213
  stamp: 
    secs: 1701739951
    nsecs: 586534394
  frame_id: ''
name: 
  - joint_1
  - joint_2
  - joint_3
  - joint_4
position: [-0.46172821521759033, -1.4005244970321655, -0.2684466540813446, -0.928058385848999]
velocity: [0.0, 0.0, 0.0, 0.0]
effort: [-59.18000030517578, 75.31999969482422, 94.1500015258789, 43.040000915527344]
---
header: 
  seq: 5214
  stamp: 
    secs: 1701739951
    nsecs: 618561192
  frame_id: ''
name: 
  - joint_1
  - joint_2
  - joint_3
  - joint_4
position: [-0.4632622003555298, -1.4005244970321655, -0.2684466540813446, -0.928058385848999]
velocity: [0.0, 0.0, 0.0, 0.0]
effort: [-59.18000030517578, 75.31999969482422, 94.1500015258789, 43.040000915527344]
---
header: 
  seq: 5215
  stamp: 
    secs: 1701739951
    nsecs: 650577410
  frame_id: ''
name: 
  - joint_1
  - joint_2
  - joint_3
  - joint_4
position: [-0.4632622003555298, -1.4005244970321655, -0.2684466540813446, -0.928058385848999]
velocity: [0.0, 0.0, 0.0, 0.0]
effort: [-59.18000030517578, 75.31999969482422, 96.84000396728516, 43.040000915527344]
---
header: 
  seq: 5216
  stamp: 
    secs: 1701739951
    nsecs: 682785367
  frame_id: ''
name: 
  - joint_1
  - joint_2
  - joint_3
  - joint_4
position: [-0.4632622003555298, -1.4005244970321655, -0.2684466540813446, -0.928058385848999]
velocity: [0.0, 0.0, 0.0, 0.0]
effort: [-59.18000030517578, 75.31999969482422, 96.84000396728516, 43.040000915527344]
---
header: 
  seq: 5217
  stamp: 
    secs: 1701739951
    nsecs: 714616369
  frame_id: ''
name: 
  - joint_1
  - joint_2
  - joint_3
  - joint_4
position: [-0.4632622003555298, -1.4005244970321655, -0.2684466540813446, -0.928058385848999]
velocity: [0.0, 0.0, 0.0, 0.0]
effort: [-59.18000030517578, 78.01000213623047, 94.1500015258789, 43.040000915527344]
---
header: 
  seq: 5218
  stamp: 
    secs: 1701739951
    nsecs: 746532934
  frame_id: ''
name: 
  - joint_1
  - joint_2
  - joint_3
  - joint_4
position: [-0.4632622003555298, -1.4005244970321655, -0.2684466540813446, -0.928058385848999]
velocity: [0.0, 0.0, 0.0, 0.0]
effort: [-59.18000030517578, 75.31999969482422, 96.84000396728516, 43.040000915527344]
---
header: 
  seq: 5219
  stamp: 
    secs: 1701739951
    nsecs: 778557139
  frame_id: ''
name: 
  - joint_1
  - joint_2
  - joint_3
  - joint_4
position: [-0.46479618549346924, -1.4005244970321655, -0.2684466540813446, -0.928058385848999]
velocity: [0.0, 0.0, 0.0, 0.0]
effort: [-59.18000030517578, 75.31999969482422, 94.1500015258789, 43.040000915527344]
---
header: 
  seq: 5220
  stamp: 
    secs: 1701739951
    nsecs: 810522674
  frame_id: ''
name: 
  - joint_1
  - joint_2
  - joint_3
  - joint_4
position: [-0.4632622003555298, -1.4005244970321655, -0.2684466540813446, -0.928058385848999]
velocity: [0.0, 0.0, 0.0, 0.0]
effort: [-59.18000030517578, 75.31999969482422, 96.84000396728516, 43.040000915527344]
---
header: 
  seq: 5221
  stamp: 
    secs: 1701739951
    nsecs: 842548284
  frame_id: ''
name: 
  - joint_1
  - joint_2
  - joint_3
  - joint_4
position: [-0.4632622003555298, -1.4005244970321655, -0.2684466540813446, -0.928058385848999]
velocity: [0.0, 0.0, 0.0, 0.0]
effort: [-59.18000030517578, 75.31999969482422, 94.1500015258789, 43.040000915527344]
---
header: 
  seq: 5222
  stamp: 
    secs: 1701739951
    nsecs: 874679932
  frame_id: ''
name: 
  - joint_1
  - joint_2
  - joint_3
  - joint_4
position: [-0.46479618549346924, -1.4005244970321655, -0.2684466540813446, -0.928058385848999]
velocity: [0.0, 0.0, 0.0, 0.0]
effort: [-59.18000030517578, 78.01000213623047, 94.1500015258789, 43.040000915527344]
---
header: 
  seq: 5223
  stamp: 
    secs: 1701739951
    nsecs: 906640836
  frame_id: ''
name: 
  - joint_1
  - joint_2
  - joint_3
  - joint_4
position: [-0.4632622003555298, -1.4005244970321655, -0.2684466540813446, -0.928058385848999]
velocity: [0.0, 0.0, 0.0, 0.0]
effort: [-61.87000274658203, 75.31999969482422, 96.84000396728516, 43.040000915527344]
---
header: 
  seq: 5224
  stamp: 
    secs: 1701739951
    nsecs: 938512448
  frame_id: ''
name: 
  - joint_1
  - joint_2
  - joint_3
  - joint_4
position: [-0.4632622003555298, -1.4005244970321655, -0.2684466540813446, -0.928058385848999]
velocity: [0.0, 0.0, 0.0, 0.0]
effort: [-61.87000274658203, 78.01000213623047, 94.1500015258789, 43.040000915527344]
---
header: 
  seq: 5225
  stamp: 
    secs: 1701739951
    nsecs: 970559033
  frame_id: ''
name: 
  - joint_1
  - joint_2
  - joint_3
  - joint_4
position: [-0.46479618549346924, -1.4005244970321655, -0.2684466540813446, -0.928058385848999]
velocity: [0.0, 0.0, 0.0, 0.0]
effort: [-61.87000274658203, 75.31999969482422, 94.1500015258789, 43.040000915527344]
---
header: 
  seq: 5226
  stamp: 
    secs: 1701739952
    nsecs:   2545128
  frame_id: ''
name: 
  - joint_1
  - joint_2
  - joint_3
  - joint_4
position: [-0.46479618549346924, -1.4005244970321655, -0.2684466540813446, -0.928058385848999]
velocity: [0.0, 0.0, 0.0, 0.0]
effort: [-61.87000274658203, 75.31999969482422, 94.1500015258789, 43.040000915527344]
---
header: 
  seq: 5227
  stamp: 
    secs: 1701739952
    nsecs:  34574680
  frame_id: ''
name: 
  - joint_1
  - joint_2
  - joint_3
  - joint_4
position: [-0.46479618549346924, -1.4005244970321655, -0.2684466540813446, -0.928058385848999]
velocity: [0.0, 0.0, 0.0, 0.0]
effort: [-61.87000274658203, 75.31999969482422, 94.1500015258789, 43.040000915527344]
---
header: 
  seq: 5228
  stamp: 
    secs: 1701739952
    nsecs:  66636229
  frame_id: ''
name: 
  - joint_1
  - joint_2
  - joint_3
  - joint_4
position: [-0.46479618549346924, -1.4005244970321655, -0.2684466540813446, -0.928058385848999]
velocity: [0.0, 0.0, 0.0, 0.0]
effort: [-61.87000274658203, 75.31999969482422, 94.1500015258789, 43.040000915527344]
---
header: 
  seq: 5229
  stamp: 
    secs: 1701739952
    nsecs:  98615999
  frame_id: ''
name: 
  - joint_1
  - joint_2
  - joint_3
  - joint_4
position: [-0.46479618549346924, -1.4005244970321655, -0.2684466540813446, -0.928058385848999]
velocity: [0.0, 0.0, 0.0, 0.0]
effort: [-61.87000274658203, 75.31999969482422, 94.1500015258789, 43.040000915527344]
---
header: 
  seq: 5230
  stamp: 
    secs: 1701739952
    nsecs: 130492739
  frame_id: ''
name: 
  - joint_1
  - joint_2
  - joint_3
  - joint_4
position: [-0.4663301706314087, -1.4005244970321655, -0.2684466540813446, -0.928058385848999]
velocity: [0.0, 0.0, 0.0, 0.0]
effort: [-61.87000274658203, 75.31999969482422, 94.1500015258789, 43.040000915527344]
---
header: 
  seq: 5231
  stamp: 
    secs: 1701739952
    nsecs: 162495064
  frame_id: ''
name: 
  - joint_1
  - joint_2
  - joint_3
  - joint_4
position: [-0.4663301706314087, -1.4005244970321655, -0.2684466540813446, -0.928058385848999]
velocity: [0.0, 0.0, 0.0, 0.0]
effort: [-61.87000274658203, 75.31999969482422, 94.1500015258789, 43.040000915527344]
---
header: 
  seq: 5232
  stamp: 
    secs: 1701739952
    nsecs: 194502695
  frame_id: ''
name: 
  - joint_1
  - joint_2
  - joint_3
  - joint_4
position: [-0.4663301706314087, -1.4005244970321655, -0.2684466540813446, -0.928058385848999]
velocity: [0.0, 0.0, 0.0, 0.0]
effort: [-61.87000274658203, 78.01000213623047, 96.84000396728516, 43.040000915527344]
---
header: 
  seq: 5233
  stamp: 
    secs: 1701739952
    nsecs: 226599755
  frame_id: ''
name: 
  - joint_1
  - joint_2
  - joint_3
  - joint_4
position: [-0.4663301706314087, -1.4005244970321655, -0.2684466540813446, -0.928058385848999]
velocity: [0.0, 0.0, 0.0, 0.0]
effort: [-61.87000274658203, 75.31999969482422, 94.1500015258789, 43.040000915527344]
---
header: 
  seq: 5234
  stamp: 
    secs: 1701739952
    nsecs: 258568744
  frame_id: ''
name: 
  - joint_1
  - joint_2
  - joint_3
  - joint_4
position: [-0.4663301706314087, -1.4005244970321655, -0.2684466540813446, -0.928058385848999]
velocity: [0.0, 0.0, 0.0, 0.0]
effort: [-61.87000274658203, 75.31999969482422, 94.1500015258789, 43.040000915527344]
---
header: 
  seq: 5235
  stamp: 
    secs: 1701739952
    nsecs: 290661541
  frame_id: ''
name: 
  - joint_1
  - joint_2
  - joint_3
  - joint_4
position: [-0.4663301706314087, -1.4005244970321655, -0.2684466540813446, -0.928058385848999]
velocity: [0.0, 0.0, 0.0, 0.0]
effort: [-61.87000274658203, 75.31999969482422, 94.1500015258789, 43.040000915527344]
---
header: 
  seq: 5236
  stamp: 
    secs: 1701739952
    nsecs: 322567750
  frame_id: ''
name: 
  - joint_1
  - joint_2
  - joint_3
  - joint_4
position: [-0.4663301706314087, -1.4005244970321655, -0.2684466540813446, -0.928058385848999]
velocity: [0.0, 0.0, 0.0, 0.0]
effort: [-61.87000274658203, 75.31999969482422, 96.84000396728516, 43.040000915527344]
---
header: 
  seq: 5237
  stamp: 
    secs: 1701739952
    nsecs: 354465789
  frame_id: ''
name: 
  - joint_1
  - joint_2
  - joint_3
  - joint_4
position: [-0.4663301706314087, -1.4005244970321655, -0.2684466540813446, -0.928058385848999]
velocity: [0.0, 0.0, 0.0, 0.0]
effort: [-61.87000274658203, 78.01000213623047, 94.1500015258789, 43.040000915527344]
---
header: 
  seq: 5238
  stamp: 
    secs: 1701739952
    nsecs: 386481846
  frame_id: ''
name: 
  - joint_1
  - joint_2
  - joint_3
  - joint_4
position: [-0.46786415576934814, -1.4005244970321655, -0.2684466540813446, -0.9295923709869385]
velocity: [0.0, 0.0, 0.0, 0.0]
effort: [-61.87000274658203, 75.31999969482422, 96.84000396728516, 43.040000915527344]
---
header: 
  seq: 5239
  stamp: 
    secs: 1701739952
    nsecs: 418484401
  frame_id: ''
name: 
  - joint_1
  - joint_2
  - joint_3
  - joint_4
position: [-0.4663301706314087, -1.4005244970321655, -0.2684466540813446, -0.928058385848999]
velocity: [0.0, 0.0, 0.0, 0.0]
effort: [-61.87000274658203, 75.31999969482422, 94.1500015258789, 43.040000915527344]
---
header: 
  seq: 5240
  stamp: 
    secs: 1701739952
    nsecs: 450568096
  frame_id: ''
name: 
  - joint_1
  - joint_2
  - joint_3
  - joint_4
position: [-0.4663301706314087, -1.4005244970321655, -0.2684466540813446, -0.928058385848999]
velocity: [0.0, 0.0, 0.0, 0.0]
effort: [-61.87000274658203, 78.01000213623047, 96.84000396728516, 43.040000915527344]
---
header: 
  seq: 5241
  stamp: 
    secs: 1701739952
    nsecs: 482768778
  frame_id: ''
name: 
  - joint_1
  - joint_2
  - joint_3
  - joint_4
position: [-0.46786415576934814, -1.4005244970321655, -0.2684466540813446, -0.928058385848999]
velocity: [0.0, 0.0, 0.0, 0.0]
effort: [-61.87000274658203, 75.31999969482422, 94.1500015258789, 43.040000915527344]
---
header: 
  seq: 5242
  stamp: 
    secs: 1701739952
    nsecs: 514524325
  frame_id: ''
name: 
  - joint_1
  - joint_2
  - joint_3
  - joint_4
position: [-0.4663301706314087, -1.4005244970321655, -0.2684466540813446, -0.928058385848999]
velocity: [0.0, 0.0, 0.0, 0.0]
effort: [-61.87000274658203, 75.31999969482422, 94.1500015258789, 43.040000915527344]
---
header: 
  seq: 5243
  stamp: 
    secs: 1701739952
    nsecs: 546503563
  frame_id: ''
name: 
  - joint_1
  - joint_2
  - joint_3
  - joint_4
position: [-0.46786415576934814, -1.4005244970321655, -0.2684466540813446, -0.928058385848999]
velocity: [0.0, 0.0, 0.0, 0.0]
effort: [-61.87000274658203, 78.01000213623047, 94.1500015258789, 43.040000915527344]
---
header: 
  seq: 5244
  stamp: 
    secs: 1701739952
    nsecs: 578496835
  frame_id: ''
name: 
  - joint_1
  - joint_2
  - joint_3
  - joint_4
position: [-0.46786415576934814, -1.4005244970321655, -0.2684466540813446, -0.928058385848999]
velocity: [0.0, 0.0, 0.0, 0.0]
effort: [-61.87000274658203, 75.31999969482422, 94.1500015258789, 43.040000915527344]
---
header: 
  seq: 5245
  stamp: 
    secs: 1701739952
    nsecs: 610504206
  frame_id: ''
name: 
  - joint_1
  - joint_2
  - joint_3
  - joint_4
position: [-0.46786415576934814, -1.4005244970321655, -0.2684466540813446, -0.928058385848999]
velocity: [0.0, 0.0, 0.0, 0.0]
effort: [-61.87000274658203, 78.01000213623047, 94.1500015258789, 43.040000915527344]
---
header: 
  seq: 5246
  stamp: 
    secs: 1701739952
    nsecs: 642564854
  frame_id: ''
name: 
  - joint_1
  - joint_2
  - joint_3
  - joint_4
position: [-0.46786415576934814, -1.4005244970321655, -0.26691266894340515, -0.928058385848999]
velocity: [0.0, 0.0, 0.0, 0.0]
effort: [-61.87000274658203, 75.31999969482422, 94.1500015258789, 43.040000915527344]
---
header: 
  seq: 5247
  stamp: 
    secs: 1701739952
    nsecs: 674643510
  frame_id: ''
name: 
  - joint_1
  - joint_2
  - joint_3
  - joint_4
position: [-0.46786415576934814, -1.4005244970321655, -0.2684466540813446, -0.928058385848999]
velocity: [0.0, 0.0, 0.0, 0.0]
effort: [-61.87000274658203, 75.31999969482422, 96.84000396728516, 43.040000915527344]
---
header: 
  seq: 5248
  stamp: 
    secs: 1701739952
    nsecs: 706585248
  frame_id: ''
name: 
  - joint_1
  - joint_2
  - joint_3
  - joint_4
position: [-0.46786415576934814, -1.4005244970321655, -0.2684466540813446, -0.928058385848999]
velocity: [0.0, 0.0, 0.0, 0.0]
effort: [-61.87000274658203, 78.01000213623047, 94.1500015258789, 43.040000915527344]
---
header: 
  seq: 5249
  stamp: 
    secs: 1701739952
    nsecs: 738450868
  frame_id: ''
name: 
  - joint_1
  - joint_2
  - joint_3
  - joint_4
position: [-0.46786415576934814, -1.4005244970321655, -0.2684466540813446, -0.928058385848999]
velocity: [0.0, 0.0, 0.0, 0.0]
effort: [-61.87000274658203, 78.01000213623047, 96.84000396728516, 43.040000915527344]
---
header: 
  seq: 5250
  stamp: 
    secs: 1701739952
    nsecs: 770503748
  frame_id: ''
name: 
  - joint_1
  - joint_2
  - joint_3
  - joint_4
position: [-0.46786415576934814, -1.4005244970321655, -0.2684466540813446, -0.928058385848999]
velocity: [0.0, 0.0, 0.0, 0.0]
effort: [-61.87000274658203, 78.01000213623047, 94.1500015258789, 43.040000915527344]
---
header: 
  seq: 5251
  stamp: 
    secs: 1701739952
    nsecs: 802500570
  frame_id: ''
name: 
  - joint_1
  - joint_2
  - joint_3
  - joint_4
position: [-0.46786415576934814, -1.4005244970321655, -0.2684466540813446, -0.928058385848999]
velocity: [0.0, 0.0, 0.0, 0.0]
effort: [-61.87000274658203, 78.01000213623047, 94.1500015258789, 43.040000915527344]
---
header: 
  seq: 5252
  stamp: 
    secs: 1701739952
    nsecs: 834543822
  frame_id: ''
name: 
  - joint_1
  - joint_2
  - joint_3
  - joint_4
position: [-0.46786415576934814, -1.4005244970321655, -0.2684466540813446, -0.928058385848999]
velocity: [0.0, 0.0, 0.0, 0.0]
effort: [-61.87000274658203, 78.01000213623047, 94.1500015258789, 43.040000915527344]
---
header: 
  seq: 5253
  stamp: 
    secs: 1701739952
    nsecs: 866587377
  frame_id: ''
name: 
  - joint_1
  - joint_2
  - joint_3
  - joint_4
position: [-0.46786415576934814, -1.4005244970321655, -0.2684466540813446, -0.928058385848999]
velocity: [0.0, 0.0, 0.0, 0.0]
effort: [-61.87000274658203, 78.01000213623047, 94.1500015258789, 43.040000915527344]
---
header: 
  seq: 5254
  stamp: 
    secs: 1701739952
    nsecs: 898541849
  frame_id: ''
name: 
  - joint_1
  - joint_2
  - joint_3
  - joint_4
position: [-0.46786415576934814, -1.4005244970321655, -0.2684466540813446, -0.928058385848999]
velocity: [0.0, 0.0, 0.0, 0.0]
effort: [-61.87000274658203, 75.31999969482422, 96.84000396728516, 43.040000915527344]
---
header: 
  seq: 5255
  stamp: 
    secs: 1701739952
    nsecs: 930520289
  frame_id: ''
name: 
  - joint_1
  - joint_2
  - joint_3
  - joint_4
position: [-0.46786415576934814, -1.4005244970321655, -0.2684466540813446, -0.928058385848999]
velocity: [0.0, 0.0, 0.0, 0.0]
effort: [-61.87000274658203, 75.31999969482422, 94.1500015258789, 43.040000915527344]
---
header: 
  seq: 5256
  stamp: 
    secs: 1701739952
    nsecs: 962468453
  frame_id: ''
name: 
  - joint_1
  - joint_2
  - joint_3
  - joint_4
position: [-0.46786415576934814, -1.4005244970321655, -0.2684466540813446, -0.928058385848999]
velocity: [0.0, 0.0, 0.0, 0.0]
effort: [-61.87000274658203, 78.01000213623047, 94.1500015258789, 43.040000915527344]
---
header: 
  seq: 5257
  stamp: 
    secs: 1701739952
    nsecs: 994482638
  frame_id: ''
name: 
  - joint_1
  - joint_2
  - joint_3
  - joint_4
position: [-0.4693981409072876, -1.402058482170105, -0.2684466540813446, -0.928058385848999]
velocity: [0.0, 0.0, 0.0, 0.0]
effort: [-61.87000274658203, 78.01000213623047, 94.1500015258789, 43.040000915527344]
---
header: 
  seq: 5258
  stamp: 
    secs: 1701739953
    nsecs:  26549472
  frame_id: ''
name: 
  - joint_1
  - joint_2
  - joint_3
  - joint_4
position: [-0.4693981409072876, -1.4005244970321655, -0.2684466540813446, -0.928058385848999]
velocity: [0.0, 0.0, 0.0, 0.0]
effort: [-61.87000274658203, 75.31999969482422, 94.1500015258789, 43.040000915527344]
---
header: 
  seq: 5259
  stamp: 
    secs: 1701739953
    nsecs:  58550485
  frame_id: ''
name: 
  - joint_1
  - joint_2
  - joint_3
  - joint_4
position: [-0.46786415576934814, -1.4005244970321655, -0.2684466540813446, -0.928058385848999]
velocity: [0.0, 0.0, 0.0, 0.0]
effort: [-61.87000274658203, 78.01000213623047, 96.84000396728516, 43.040000915527344]
---
header: 
  seq: 5260
  stamp: 
    secs: 1701739953
    nsecs:  90597988
  frame_id: ''
name: 
  - joint_1
  - joint_2
  - joint_3
  - joint_4
position: [-0.46786415576934814, -1.4005244970321655, -0.2684466540813446, -0.928058385848999]
velocity: [0.0, 0.0, 0.0, 0.0]
effort: [-61.87000274658203, 75.31999969482422, 91.45999908447266, 43.040000915527344]
---
header: 
  seq: 5261
  stamp: 
    secs: 1701739953
    nsecs: 122518997
  frame_id: ''
name: 
  - joint_1
  - joint_2
  - joint_3
  - joint_4
position: [-0.4693981409072876, -1.4005244970321655, -0.2684466540813446, -0.928058385848999]
velocity: [0.0, 0.0, 0.0, 0.0]
effort: [-61.87000274658203, 75.31999969482422, 94.1500015258789, 43.040000915527344]
---
header: 
  seq: 5262
  stamp: 
    secs: 1701739953
    nsecs: 154465641
  frame_id: ''
name: 
  - joint_1
  - joint_2
  - joint_3
  - joint_4
position: [-0.46786415576934814, -1.4005244970321655, -0.2684466540813446, -0.928058385848999]
velocity: [0.0, 0.0, 0.0, 0.0]
effort: [-61.87000274658203, 75.31999969482422, 96.84000396728516, 43.040000915527344]
---
header: 
  seq: 5263
  stamp: 
    secs: 1701739953
    nsecs: 186468288
  frame_id: ''
name: 
  - joint_1
  - joint_2
  - joint_3
  - joint_4
position: [-0.4693981409072876, -1.4005244970321655, -0.2684466540813446, -0.928058385848999]
velocity: [0.0, 0.0, 0.0, 0.0]
effort: [-61.87000274658203, 75.31999969482422, 96.84000396728516, 43.040000915527344]
---
header: 
  seq: 5264
  stamp: 
    secs: 1701739953
    nsecs: 218458196
  frame_id: ''
name: 
  - joint_1
  - joint_2
  - joint_3
  - joint_4
position: [-0.46786415576934814, -1.4005244970321655, -0.2684466540813446, -0.928058385848999]
velocity: [0.0, 0.0, 0.0, 0.0]
effort: [-61.87000274658203, 75.31999969482422, 94.1500015258789, 43.040000915527344]
---
header: 
  seq: 5265
  stamp: 
    secs: 1701739953
    nsecs: 250515949
  frame_id: ''
name: 
  - joint_1
  - joint_2
  - joint_3
  - joint_4
position: [-0.46786415576934814, -1.4005244970321655, -0.2684466540813446, -0.928058385848999]
velocity: [0.0, 0.0, 0.0, 0.0]
effort: [-61.87000274658203, 75.31999969482422, 96.84000396728516, 43.040000915527344]
---
header: 
  seq: 5266
  stamp: 
    secs: 1701739953
    nsecs: 282580971
  frame_id: ''
name: 
  - joint_1
  - joint_2
  - joint_3
  - joint_4
position: [-0.46786415576934814, -1.4005244970321655, -0.2684466540813446, -0.928058385848999]
velocity: [0.0, 0.0, 0.0, 0.0]
effort: [-61.87000274658203, 78.01000213623047, 94.1500015258789, 43.040000915527344]
---
header: 
  seq: 5267
  stamp: 
    secs: 1701739953
    nsecs: 314521689
  frame_id: ''
name: 
  - joint_1
  - joint_2
  - joint_3
  - joint_4
position: [-0.46786415576934814, -1.4005244970321655, -0.2684466540813446, -0.928058385848999]
velocity: [0.0, 0.0, 0.0, 0.0]
effort: [-61.87000274658203, 75.31999969482422, 94.1500015258789, 43.040000915527344]
---
header: 
  seq: 5268
  stamp: 
    secs: 1701739953
    nsecs: 346442719
  frame_id: ''
name: 
  - joint_1
  - joint_2
  - joint_3
  - joint_4
position: [-0.4693981409072876, -1.4005244970321655, -0.2684466540813446, -0.928058385848999]
velocity: [0.0, 0.0, 0.0, 0.0]
effort: [-64.55999755859375, 88.77000427246094, 118.36000061035156, 40.35000228881836]
---
header: 
  seq: 5269
  stamp: 
    secs: 1701739953
    nsecs: 378463585
  frame_id: ''
name: 
  - joint_1
  - joint_2
  - joint_3
  - joint_4
position: [-0.4693981409072876, -1.4005244970321655, -0.2684466540813446, -0.9295923709869385]
velocity: [0.0, 0.0, 0.0, 0.0]
effort: [-64.55999755859375, 96.84000396728516, 131.80999755859375, 37.65999984741211]
---
header: 
  seq: 5270
  stamp: 
    secs: 1701739953
    nsecs: 410456390
  frame_id: ''
name: 
  - joint_1
  - joint_2
  - joint_3
  - joint_4
position: [-0.46786415576934814, -1.4005244970321655, -0.2684466540813446, -0.9326603412628174]
velocity: [0.0, 0.0, 0.0, -0.04796164855360985]
effort: [-64.55999755859375, 174.85000610351562, 328.17999267578125, 24.21000099182129]
---
header: 
  seq: 5271
  stamp: 
    secs: 1701739953
    nsecs: 442536787
  frame_id: ''
name: 
  - joint_1
  - joint_2
  - joint_3
  - joint_4
position: [-0.4693981409072876, -1.4005244970321655, -0.26691266894340515, -0.9372622966766357]
velocity: [0.0, 0.0, 0.0, -0.11990412324666977]
effort: [-64.55999755859375, 236.72000122070312, 398.1199951171875, 13.450000762939453]
---
header: 
  seq: 5272
  stamp: 
    secs: 1701739953
    nsecs: 474596008
  frame_id: ''
name: 
  - joint_1
  - joint_2
  - joint_3
  - joint_4
position: [-0.4693981409072876, -1.4005244970321655, -0.26384469866752625, -0.9464661478996277]
velocity: [0.0, 0.0, 0.04796164855360985, -0.1918465942144394]
effort: [-64.55999755859375, 309.3500061035156, 476.1300048828125, 8.069999694824219]
---
header: 
  seq: 5273
  stamp: 
    secs: 1701739953
    nsecs: 506557457
  frame_id: ''
name: 
  - joint_1
  - joint_2
  - joint_3
  - joint_4
position: [-0.4693981409072876, -1.4005244970321655, -0.25617480278015137, -0.954136073589325]
velocity: [0.0, 0.0, 0.16786576807498932, -0.2637890577316284]
effort: [-64.55999755859375, 347.010009765625, 546.0700073242188, 5.380000114440918]
---
header: 
  seq: 5274
  stamp: 
    secs: 1701739953
    nsecs: 542983997
  frame_id: ''
name: 
  - joint_1
  - joint_2
  - joint_3
  - joint_4
position: [-0.4693981409072876, -1.4005244970321655, -0.24543693661689758, -0.9633399844169617]
velocity: [0.0, 0.0, 0.2637890577316284, -0.2637890577316284]
effort: [-64.55999755859375, 443.8500061035156, 481.510009765625, 2.690000057220459]
---
header: 
  seq: 5275
  stamp: 
    secs: 1701739953
    nsecs: 570433201
  frame_id: ''
name: 
  - joint_1
  - joint_2
  - joint_3
  - joint_4
position: [-0.4693981409072876, -1.398990511894226, -0.22396120429039001, -0.9740778207778931]
velocity: [0.0, 0.023980824276804924, 0.455635666847229, -0.2877698838710785]
effort: [-64.55999755859375, 489.58001708984375, 451.9200134277344, 0.0]
---
header: 
  seq: 5276
  stamp: 
    secs: 1701739953
    nsecs: 602470594
  frame_id: ''
name: 
  - joint_1
  - joint_2
  - joint_3
  - joint_4
position: [-0.4693981409072876, -1.3974565267562866, -0.20555342733860016, -0.9817477464675903]
velocity: [0.0, 0.023980824276804924, 0.575539767742157, -0.2637890577316284]
effort: [-64.55999755859375, 578.3500366210938, 419.6400146484375, 0.0]
---
header: 
  seq: 5277
  stamp: 
    secs: 1701739953
    nsecs: 634477570
  frame_id: ''
name: 
  - joint_1
  - joint_2
  - joint_3
  - joint_4
position: [-0.4693981409072876, -1.3974565267562866, -0.18254372477531433, -0.9909515976905823]
velocity: [0.0, 0.023980824276804924, 0.6714630722999573, -0.2877698838710785]
effort: [-64.55999755859375, 683.260009765625, 398.1199951171875, 0.0]
---
header: 
  seq: 5278
  stamp: 
    secs: 1701739953
    nsecs: 666515669
  frame_id: ''
name: 
  - joint_1
  - joint_2
  - joint_3
  - joint_4
position: [-0.4693981409072876, -1.3943885564804077, -0.15800002217292786, -1.0001554489135742]
velocity: [0.0, 0.04796164855360985, 0.7434055805206299, -0.2637890577316284]
effort: [-64.55999755859375, 648.2900390625, 309.3500061035156, 0.0]
---
header: 
  seq: 5279
  stamp: 
    secs: 1701739953
    nsecs: 698519166
  frame_id: ''
name: 
  - joint_1
  - joint_2
  - joint_3
  - joint_4
